address,city,state,postal_code,latitude,longitude,brand,cheap,fresh,variety,friendly
"502 Christiana Mall Newark, DE 19702",Newark,DE,19702,39.678008,-75.652355,kroger,4,3,4,3
"26370 Bay Farm Rd Millsboro, DE 19966",Millsboro,DE,19966,38.6250628,-75.1946885,kroger,4,3,4,3
"31221 Americana Pkwy Selbyville, DE 19975",Selbyville,DE,19975,38.4700572,-75.113975,kroger,4,3,4,3
"100 Saint Thomas Dr Weirton, WV 26062",Weirton,WV,26062,40.3967719,-80.5540849,kroger,4,3,4,3
"264 S Hollywood Blvd Steubenville, OH 43952",Steubenville,OH,43952,40.3670513,-80.6398458,kroger,4,3,4,3
"91 27Th St Wellsburg, WV 26070",Wellsburg,WV,26070,40.2906033,-80.6089879,kroger,4,3,4,3
"858 Main St Wintersville, OH 43953",Wintersville,OH,43953,40.3744036,-80.7035521,kroger,4,3,4,3
"1241 Warwood Ave Wheeling, WV 26003",Wheeling,WV,26003,40.114094,-80.699739,kroger,4,3,4,3
"200 Mount De Chantal Rd Wheeling, WV 26003",Wheeling,WV,26003,40.0738199,-80.6996599,kroger,4,3,4,3
"400 Aetna St Martins Ferry, OH 43935",Martins Ferry,OH,43935,40.0868407,-80.733012,kroger,4,3,4,3
"400 28Th St Bellaire, OH 43906",Bellaire,OH,43906,40.0115573,-80.7474904,kroger,4,3,4,3
"50789 Valley Plaza Dr St. Clairsville, OH 43950",St. Clairsville,OH,43950,40.0756431,-80.8727375,kroger,4,3,4,3
"1212 Lafayette Ave Moundsville, WV 26041",Moundsville,WV,26041,39.9109599,-80.7459382,kroger,4,3,4,3
"3100 University Avenue Morgantown, WV 26505",Morgantown,WV,26505,39.6543128,-79.9699611,kroger,4,3,4,3
"350 Patteson Dr Morgantown, WV 26505",Morgantown,WV,26505,39.6504833,-79.9682114,kroger,4,3,4,3
"500 Suncrest Town Centre Dr Morgantown, WV 26505",Morgantown,WV,26505,39.6508736,-79.9413753,kroger,4,3,4,3
"1851 Earl L Core Rd Morgantown, WV 26505",Morgantown,WV,26505,39.6222006,-79.9249216,kroger,4,3,4,3
"102 Emily Dr Clarksburg, WV 26301",Clarksburg,WV,26301,39.279107,-80.279628,kroger,4,3,4,3
"22700 Sweetshrub Dr Clarksburg, MD 20871",Clarksburg,MD,20871,39.2295949,-77.2504013,kroger,4,3,4,3
"105 Purcellville Gateway Dr PURCELLVILLE, VA 20132",Purcellville,VA,20132,39.1364815,-77.6945836,kroger,4,3,4,3
"19350 Winmeade Drive Leesburg, VA 20176",Leesburg,VA,20176,39.0807101,-77.495512,kroger,4,3,4,3
"20070 Ashbrook Commons Plaza Suite 151 Ashburn, VA 20147",Ashburn,VA,20147,39.0603736,-77.4705422,kroger,4,3,4,3
"42780 Creek View Plaza ASHBURN, VA 20147",Ashburn,VA,20147,39.0435678,-77.5214942,kroger,4,3,4,3
"14101 Darnestown Rd Darnestown, MD 20874",Darnestown,MD,20874,39.1043626,-77.2916108,kroger,4,3,4,3
"11075 Resort Rd Ellicott City, MD 21042",Ellicott City,MD,21042,39.297814,-76.8973359,kroger,4,3,4,3
"323 Copley Place Gaithersburg, MD 20878",Gaithersburg,MD,20878,39.1153487,-77.207685,kroger,4,3,4,3
"3779 Boston St Baltimore, MD 21224",Baltimore,MD,21224,39.27487,-76.564865,kroger,4,3,4,3
"1801 Whetstone Way Baltimore, MD 21230",Baltimore,MD,21230,39.2677001,-76.5997946,kroger,4,3,4,3
"143 Ritchie Hwy N Severna Park, MD 21146",Severna Park,MD,21146,39.0982236,-76.561016,kroger,4,3,4,3
"8620 Guilford Rd Columbia, MD 21046",Columbia,MD,21046,39.1700226,-76.8642506,kroger,4,3,4,3
"18169 Town Center Dr Olney, MD 20832",Olney,MD,20832,39.1535417,-77.0619678,kroger,4,3,4,3
"8184 Westside Blvd Fulton, MD 20759",Fulton,MD,20759,39.1496753,-76.9112813,kroger,4,3,4,3
"14702 Baltimore Ave Laurel, MD 20707",Laurel,MD,20707,39.0929405,-76.8584304,kroger,4,3,4,3
"12525 Park Potomac Ave Potomac, MD 20854",Potomac,MD,20854,39.0614378,-77.1572299,kroger,4,3,4,3
"11845 Old Georgetown Rd Rockville, MD 20852",Rockville,MD,20852,39.0495356,-77.1092944,kroger,4,3,4,3
"28528 Marlboro Ave Easton, MD 21601",Easton,MD,21601,38.78566,-76.087276,kroger,4,3,4,3
"1201 First St NE Washington, DC 20002",Washington,DC,20002,38.9058758,-77.0055935,kroger,4,3,4,3
"1631 Kalorama Road NW Washington, DC 20009",Washington,DC,20009,38.9219804,-77.0384578,kroger,4,3,4,3
"401 M Street SE Washington, DC 20003",Washington,DC,20003,38.8758757,-77.0000152,kroger,4,3,4,3
"900 Army-Navy Drive Arlington, VA 22202",Arlington,VA,22202,38.8652564,-77.0619613,kroger,4,3,4,3
"3600 S. Glebe Rd Suite W100 Arlington, VA 22202",Arlington,VA,22202,38.8423887,-77.051868,kroger,4,3,4,3
"600 North Glebe Road Arlington, VA 22203",Arlington,VA,22203,38.8766666,-77.1098822,kroger,4,3,4,3
"950 S George Mason Dr Arlington, VA 22204",Arlington,VA,22204,38.858928,-77.102467,kroger,4,3,4,3
"4250 Campbell Avenue Arlington, VA 22206",Arlington,VA,22206,38.8413764,-77.090135,kroger,4,3,4,3
"2425 North Harrison Street ARLINGTON, VA 22207",Arlington,VA,22207,38.8969894,-77.137529,kroger,4,3,4,3
"4550 King St Alexandria, VA 22302",Alexandria,VA,22302,38.840304,-77.107286,kroger,4,3,4,3
"735 N. Saint Asaph St. Alexandria, VA 22314",Alexandria,VA,22314,38.8126592,-77.0437344,kroger,4,3,4,3
"4805 Battery Lane Bethesda, MD 20814",Bethesda,MD,20814,38.9927564,-77.0965308,kroger,4,3,4,3
"4641 Duke Street Alexandria, VA 22314",Alexandria,VA,22314,38.8128453,-77.1125492,kroger,4,3,4,3
"301 W Broad St #A Falls Church, VA 22046",Falls Church,VA,22046,38.883562,-77.173581,kroger,4,3,4,3
"6351 Columbia Pike FALLS CHURCH, VA 22041",Falls Church,VA,22041,38.8356087,-77.1554044,kroger,4,3,4,3
"8200 Crestwood Heights Dr MCLEAN, VA 22102",Mclean,VA,22102,38.9299784,-77.2276195,kroger,4,3,4,3
"2675 Avenir Place Vienna, VA 22180",Vienna,VA,22180,38.8793421,-77.2278834,kroger,4,3,4,3
"15501 Annapolis Rd. #400 Bowie, MD 20715",Bowie,MD,20715,38.9779435,-76.733825,kroger,4,3,4,3
"11806 Spectrum Center Reston, VA 20190",Reston,VA,20190,38.9660949,-77.3548599,kroger,4,3,4,3
"3905 Fair Ridge Dr. Fairfax, VA 22033",Fairfax,VA,22033,38.872995,-77.3742857,kroger,4,3,4,3
"12960 Highland Crossing Drive HERNDON, VA 20171",Herndon,VA,20171,38.949801,-77.394948,kroger,4,3,4,3
"21399 Epicerie Plaza Sterling, VA 20164",Sterling,VA,20164,39.0231238,-77.3963118,kroger,4,3,4,3
"10125 Ward Road Dunkirk, MD 20754",Dunkirk,MD,20754,38.717676,-76.658361,kroger,4,3,4,3
"12745 Galveston Ct Manassas, VA 20112",Manassas,VA,20112,38.6803398,-77.3633746,kroger,4,3,4,3
"25401 Eastern Marketplace Plaza Chantilly, VA 20152",Chantilly,VA,20152,38.9151888,-77.4894456,kroger,4,3,4,3
"10060 Market Circle Manassas, VA 20110",Manassas,VA,20110,38.7390758,-77.452844,kroger,4,3,4,3
"43300 Southern Walk Plaza Ashburn, VA 20148",Ashburn,VA,20148,39.0086515,-77.5032675,kroger,4,3,4,3
"42415 Ryan Road Brambleton, VA 20148",Brambleton,VA,20148,38.9858972,-77.5349995,kroger,4,3,4,3
"24441 Stone Springs Blvd Sterling, VA 20166",Sterling,VA,20166,38.9412588,-77.5448447,kroger,4,3,4,3
"42015 Village Center Plaza Suite 110 Aldie, VA 20105",Aldie,VA,20105,38.9392467,-77.549023,kroger,4,3,4,3
"10438 Bristow Center Dr Bristow, VA 20136",Bristow,VA,20136,38.7323471,-77.5499928,kroger,4,3,4,3
"13901 Heathcote Blvd. Gainesville, VA 20155",Gainesville,VA,20155,38.8078308,-77.611825,kroger,4,3,4,3
"530 Fletcher Dr Warrenton, VA 20186",Warrenton,VA,20186,38.727285,-77.7959607,kroger,4,3,4,3
"44900 Saint Andrews Church Rd California, MD 20619",California,MD,20619,38.302746,-76.523278,kroger,4,3,4,3
"9351 Atlee Rd Mechanicsville, VA 23116",Mechanicsville,VA,23116,37.651862,-77.4023142,kroger,4,3,4,3
"11895 W Broad St Richmond, VA 23233",Richmond,VA,23233,37.6528767,-77.6257764,kroger,4,3,4,3
"9480 W Broad St Henrico, VA 23294",Henrico,VA,23294,37.6411047,-77.55518,kroger,4,3,4,3
"9000 Staples Mill Road Henrico, VA 23228",Henrico,VA,23228,37.6371706,-77.5146395,kroger,4,3,4,3
"6335 Mechanicsville Tpke Mechanicsville, VA 23111",Mechanicsville,VA,23111,37.6147813,-77.319389,kroger,4,3,4,3
"1356 Gaskins Rd Richmond, VA 23238",Richmond,VA,23238,37.6066106,-77.5921409,kroger,4,3,4,3
"1510 Eastridge Rd Richmond, VA 23229",Richmond,VA,23229,37.6036466,-77.5618116,kroger,4,3,4,3
"1601 Willow Lawn Dr Ste 1 Richmond, VA 23230",Richmond,VA,23230,37.5800889,-77.4992451,kroger,4,3,4,3
"901 N Lombardy St Richmond, VA 23220",Richmond,VA,23220,37.5559553,-77.4538601,kroger,4,3,4,3
"3507 W Cary St Richmond, VA 23221",Richmond,VA,23221,37.5544269,-77.4879735,kroger,4,3,4,3
"4816 S Laburnum Ave Richmond, VA 23231",Richmond,VA,23231,37.5197952,-77.351953,kroger,4,3,4,3
"3001 Polo Pkwy Midlothian, VA 23113",Midlothian,VA,23113,37.525986,-77.608528,kroger,4,3,4,3
"7000 Tim Price Way North Chesterfield, VA 23225",North Chesterfield,VA,23225,37.498952,-77.52557,kroger,4,3,4,3
"14101 Midlothian Tpke Midlothian, VA 23113",Midlothian,VA,23113,37.5044545,-77.6636743,kroger,4,3,4,3
"2821 Hicks Rd North Chesterfield, VA 23235",North Chesterfield,VA,23235,37.4619237,-77.5484941,kroger,4,3,4,3
"13201 Rittenhouse Dr Midlothian, VA 23112",Midlothian,VA,23112,37.4154331,-77.638893,kroger,4,3,4,3
"10800 Iron Bridge Road Chester, VA 23831",Chester,VA,23831,37.367386,-77.501722,kroger,4,3,4,3
"12726 Jefferson Davis Hwy Chester, VA 23831",Chester,VA,23831,37.3519264,-77.4148647,kroger,4,3,4,3
"6485 Centerville Road Williamsburg, VA 23188",Williamsburg,VA,23188,37.3389176,-76.7561377,kroger,4,3,4,3
"7254 Hayes Shopping Court Hayes, VA 23072",Hayes,VA,23072,37.29393,-76.511687,kroger,4,3,4,3
"1470 Quarterpath Rd Williamsburg, VA 23185",Williamsburg,VA,23185,37.2487143,-76.6865177,kroger,4,3,4,3
"4511 John Tyler Hwy Williamsburg, VA 23185",Williamsburg,VA,23185,37.251464,-76.76369,kroger,4,3,4,3
"6500-C George Washington Memorial Hwy Grafton, VA 23692",Grafton,VA,23692,37.1730607,-76.4725823,kroger,4,3,4,3
"5007 Victory Blvd Yorktown, VA 23693",Yorktown,VA,23693,37.113543,-76.466555,kroger,4,3,4,3
"12404 Warwick Blvd Newport News, VA 23606",Newport News,VA,23606,37.06857,-76.491554,kroger,4,3,4,3
"1790 E Market St Harrisonburg, VA 22801",Harrisonburg,VA,22801,38.4316385,-78.8406856,kroger,4,3,4,3
"159 Community Drive Charlottesville, VA 22911",Charlottesville,VA,22911,38.1274717,-78.4437236,kroger,4,3,4,3
"1980 Rio Hill Ctr Charlottesville, VA 22901",Charlottesville,VA,22901,38.0892084,-78.4740311,kroger,4,3,4,3
"1904 Emmet St N Charlottesville, VA 22901",Charlottesville,VA,22901,38.0595317,-78.4911958,kroger,4,3,4,3
"1159 Emmet St N Charlottesville, VA 22903",Charlottesville,VA,22903,38.0535892,-78.5006568,kroger,4,3,4,3
"975 Emmet Street Space 8 CHARLOTTESVILLE, VA 22903",Charlottesville,VA,22903,38.0500621,-78.5045993,kroger,4,3,4,3
"545 Radford Ln Building A CHARLOTTESVILLE, VA 22903",Charlottesville,VA,22903,38.0508762,-78.6819627,kroger,4,3,4,3
"245 Arch Ave Waynesboro, VA 22980",Waynesboro,VA,22980,38.0656139,-78.8885241,kroger,4,3,4,3
"850 Statler Blvd Staunton, VA 24401",Staunton,VA,24401,38.1393089,-79.0686715,kroger,4,3,4,3
"7789 Richmond Hwy Appomattox, VA 24522",Appomattox,VA,24522,37.3659656,-78.8444999,kroger,4,3,4,3
"422 E Nelson St Lexington, VA 24450",Lexington,VA,24450,37.7808696,-79.4361553,kroger,4,3,4,3
"4119 Boonsboro Rd Lynchburg, VA 24503",Lynchburg,VA,24503,37.4423929,-79.2039943,kroger,4,3,4,3
"2012 Wards Rd Lynchburg, VA 24502",Lynchburg,VA,24502,37.3749965,-79.1835381,kroger,4,3,4,3
"7805 Timberlake Rd Lynchburg, VA 24502",Lynchburg,VA,24502,37.3541197,-79.2268709,kroger,4,3,4,3
"1618 Main St Clifton Forge, VA 24422",Clifton Forge,VA,24422,37.816521,-79.8090816,kroger,4,3,4,3
"15069 Forest Rd Forest, VA 24551",Forest,VA,24551,37.3641567,-79.2949382,kroger,4,3,4,3
"1050 W Mercury Blvd Hampton, VA 23666",Hampton,VA,23666,37.044892,-76.383417,kroger,4,3,4,3
"227 Fox Hill Road, A01 Hampton, VA 23669",Hampton,VA,23669,37.05826,-76.32846,kroger,4,3,4,3
"1282 Smithfield Plaza Smithfield, VA 23430",Smithfield,VA,23430,36.955618,-76.603377,kroger,4,3,4,3
"179 W Ocean View Ave Norfolk, VA 23503",Norfolk,VA,23503,36.954299,-76.253331,kroger,4,3,4,3
"7550 Granby St. Norfolk, VA 23505",Norfolk,VA,23505,36.9139568,-76.2712559,kroger,4,3,4,3
"1017 University Blvd Suffolk, VA 23435",Suffolk,VA,23435,36.872355,-76.42044,kroger,4,3,4,3
"3575 Bridge Rd Suffolk, VA 23435",Suffolk,VA,23435,36.860941,-76.466973,kroger,4,3,4,3
"3249 Tyre Neck Rd. PORTSMOUTH, VA 23703",Portsmouth,VA,23703,36.8623219,-76.3944573,kroger,4,3,4,3
"1320 Colonial Ave Norfolk, VA 23517",Norfolk,VA,23517,36.8648395,-76.2925258,kroger,4,3,4,3
"1301 Frederick Boulevard Portsmouth, VA 23707",Portsmouth,VA,23707,36.8278206,-76.3364933,kroger,4,3,4,3
"4625 Shore Dr Virginia Beach, VA 23455",Virginia Beach,VA,23455,36.9030363,-76.1304624,kroger,4,3,4,3
"1069 Independence Blvd Virginia Beach, VA 23455",Virginia Beach,VA,23455,36.872869,-76.135972,kroger,4,3,4,3
"1401 North Main Street Suffolk, VA 23434",Suffolk,VA,23434,36.74948,-76.585462,kroger,4,3,4,3
"975 Providence Sq Shopping Ctr Virginia Beach, VA 23464",Virginia Beach,VA,23464,36.8122513,-76.167841,kroger,4,3,4,3
"2110 Great Neck Sq Virginia Beach, VA 23454",Virginia Beach,VA,23454,36.87544,-76.037599,kroger,4,3,4,3
"1653 Sentinel Drive Chesapeake, VA 23320",Chesapeake,VA,23320,36.778298,-76.253951,kroger,4,3,4,3
"3330 Virginia Beach Blvd Virginia Beach, VA 23452",Virginia Beach,VA,23452,36.8440745,-76.0882684,kroger,4,3,4,3
"3333 Virginia Beach Boulevard Virginia Beach, VA 23451",Virginia Beach,VA,23451,36.8409189,-76.0862686,kroger,4,3,4,3
"5060 Ferrell Pkwy Virginia Beach, VA 23464",Virginia Beach,VA,23464,36.7938231,-76.1691567,kroger,4,3,4,3
"4540 Princess Anne Rd Virginia Beach, VA 23462",Virginia Beach,VA,23462,36.807236,-76.1327354,kroger,4,3,4,3
"1216 Greenbrier Parkway CHESAPEAKE, VA 23320",Chesapeake,VA,23320,36.7693582,-76.2300646,kroger,4,3,4,3
"3901 Holland Road Virginia Beach, VA 23452",Virginia Beach,VA,23452,36.8132715,-76.1111927,kroger,4,3,4,3
"1800 Republic Rd Virginia Beach, VA 23454",Virginia Beach,VA,23454,36.8523856,-76.0280787,kroger,4,3,4,3
"1400 Kempsville Road #109 Chesapeake, VA 23320",Chesapeake,VA,23320,36.76445,-76.20226,kroger,4,3,4,3
"2800 Arctic Avenue Virginia Beach, VA 23451",Virginia Beach,VA,23451,36.8557663,-75.9810611,kroger,4,3,4,3
"309 South Battlefield Blvd Chesapeake, VA 23322",Chesapeake,VA,23322,36.714967,-76.237417,kroger,4,3,4,3
"1464 Mt Pleasant Road Chesapeake, VA 23322",Chesapeake,VA,23322,36.716656,-76.187727,kroger,4,3,4,3
"237 Hanbury Road East CHESAPEAKE, VA 23322",Chesapeake,VA,23322,36.6857121,-76.2249127,kroger,4,3,4,3
"2476 Nimmo Parkway Virginia Beach, VA 23456",Virginia Beach,VA,23456,36.7548804,-76.0651771,kroger,4,3,4,3
"2129 General Booth Boulevard Virginia Beach, VA 23454",Virginia Beach,VA,23454,36.76776,-76.01541,kroger,4,3,4,3
"2105 Princess Anne Rd. Virginia Beach, VA 23456",Virginia Beach,VA,23456,36.7516257,-76.0118395,kroger,4,3,4,3
"601 Currituck Clubhouse Dr . COROLLA, NC 27927",Corolla,NC,27927,36.3030868,-75.8065443,kroger,4,3,4,3
"5400 North Croatan Hwy #A Kitty Hawk, NC 27949",Kitty Hawk,NC,27949,36.0972627,-75.7192362,kroger,4,3,4,3
"3679 Sunset Avenue Rocky Mount, NC 27801",Rocky Mount,NC,27801,35.9626437,-77.8521997,kroger,4,3,4,3
"13686 Capital Blvd. WAKE FOREST, NC 27587",Wake Forest,NC,27587,36.005386,-78.5182797,kroger,4,3,4,3
"614 Brandon Ave Sw Roanoke, VA 24015",Roanoke,VA,24015,37.256175,-79.956016,kroger,4,3,4,3
"915 Hardy Rd Vinton, VA 24179",Vinton,VA,24179,37.2718692,-79.8871144,kroger,4,3,4,3
"4488 Electric Rd Roanoke, VA 24018",Roanoke,VA,24018,37.2332055,-79.9765167,kroger,4,3,4,3
"5050 Rutgers St Nw Roanoke, VA 24012",Roanoke,VA,24012,37.3171968,-79.9654969,kroger,4,3,4,3
"3971 Brambleton Ave Roanoke, VA 24018",Roanoke,VA,24018,37.2331066,-80.0090473,kroger,4,3,4,3
"3970 Valley Gateway Blvd. Roanoke, VA 24012",Roanoke,VA,24012,37.3129851,-79.8799901,kroger,4,3,4,3
"3635 Peters Creek Rd. Roanoke, VA 24019",Roanoke,VA,24019,37.3231544,-79.9930877,kroger,4,3,4,3
"4404 Brambleton Ave Roanoke, VA 24018",Roanoke,VA,24018,37.2240862,-80.011781,kroger,4,3,4,3
"161 Electric Rd Salem, VA 24153",Salem,VA,24153,37.2967495,-80.0291275,kroger,4,3,4,3
"1925 Electric Rd Salem, VA 24153",Salem,VA,24153,37.2643375,-80.0350184,kroger,4,3,4,3
"7223 Williamson Rd Roanoke, VA 24019",Roanoke,VA,24019,37.3454411,-79.9545141,kroger,4,3,4,3
"1477 W Main St Salem, VA 24153",Salem,VA,24153,37.2906453,-80.0831415,kroger,4,3,4,3
"72 Kingston Dr Daleville, VA 24083",Daleville,VA,24083,37.3968707,-79.9111764,kroger,4,3,4,3
"80 Westlake Rd Hardy, VA 24101",Hardy,VA,24101,37.1179775,-79.7190137,kroger,4,3,4,3
"400 Old Franklin Tpke Ste 110 Rocky Mount, VA 24151",Rocky Mount,VA,24151,37.0115094,-79.8658615,kroger,4,3,4,3
"1322 S Main St Blacksburg, VA 24060",Blacksburg,VA,24060,37.2167784,-80.4027343,kroger,4,3,4,3
"903 University City Blvd Blacksburg, VA 24060",Blacksburg,VA,24060,37.2354892,-80.4352626,kroger,4,3,4,3
"555 N Franklin St Christiansburg, VA 24073",Christiansburg,VA,24073,37.1361244,-80.4117031,kroger,4,3,4,3
"7480 Lee Hwy Fairlawn, VA 24141",Fairlawn,VA,24141,37.1416095,-80.5804881,kroger,4,3,4,3
"240 Commonwealth Blvd W Martinsville, VA 24112",Martinsville,VA,24112,36.697591,-79.8760504,kroger,4,3,4,3
"178 Red Oaks Shopping Center Ronceverte, WV 24970",Ronceverte,WV,24970,37.7682688,-80.467048,kroger,4,3,4,3
"2835 Reynolda Rd Winston-Salem, NC 27106",Winston-Salem,NC,27106,36.1458915,-80.2988756,kroger,4,3,4,3
"5365 Robinhood Village Dr Winston-Salem, NC 27106",Winston-Salem,NC,27106,36.1228478,-80.3682477,kroger,4,3,4,3
"1955 North Peace Haven Road WINSTON SALEM, NC 27106",Winston Salem,NC,27106,36.117995,-80.3106846,kroger,4,3,4,3
"150 Grant Hill Lane WINSTON-SALEM, NC 27104",Winston-Salem,NC,27104,36.0839327,-80.3469458,kroger,4,3,4,3
"420-22 South Stratford Road Winston Salem, NC 27103",Winston Salem,NC,27103,36.0901912,-80.2857454,kroger,4,3,4,3
"2281 Cloverdale Avenue Winston Salem, NC 27103",Winston Salem,NC,27103,36.0911576,-80.2762412,kroger,4,3,4,3
"4150 Clemmons Road Clemmons, NC 27012",Clemmons,NC,27012,36.0201037,-80.4072122,kroger,4,3,4,3
"971 S. Main Street Kernersville, NC 27284",Kernersville,NC,27284,36.1072364,-80.0947009,kroger,4,3,4,3
"4010 Battleground Avenue Greensboro, NC 27410",Greensboro,NC,27410,36.1475796,-79.8667224,kroger,4,3,4,3
"1229 Stafford Dr Princeton, WV 24740",Princeton,WV,24740,37.3606644,-81.0950314,kroger,4,3,4,3
"308 Stokes Dr Hinton, WV 25951",Hinton,WV,25951,37.6600022,-80.8910937,kroger,4,3,4,3
"240 Main Street Hinton, WV 25951",Hinton,WV,25951,37.6658645,-80.8942096,kroger,4,3,4,3
"401 Pisgah Church Rd Greensboro, NC 27455",Greensboro,NC,27455,36.130463,-79.795623,kroger,4,3,4,3
"1605 New Garden Rd Greensboro, NC 27410",Greensboro,NC,27410,36.1187048,-79.8759174,kroger,4,3,4,3
"2639 Lawndale Dr GREENSBORO, NC 27408",Greensboro,NC,27408,36.1033674,-79.8213949,kroger,4,3,4,3
"701 Francis King Street GREENSBORO, NC 27410",Greensboro,NC,27410,36.0885565,-79.8910518,kroger,4,3,4,3
"3330 West Friendly Ave Greensboro, NC 27410",Greensboro,NC,27410,36.0881243,-79.8377251,kroger,4,3,4,3
"1589 Skeet Club Road Suite 140 High Point, NC 27265",High Point,NC,27265,36.0328995,-79.9683366,kroger,4,3,4,3
"5710-W West Gate City Blvd Greensboro, NC 27407",Greensboro,NC,27407,36.0172388,-79.8974373,kroger,4,3,4,3
"2727 S. Church St BURLINGTON, NC 27215",Burlington,NC,27215,36.0822928,-79.4835884,kroger,4,3,4,3
"265 Eastchester Dr HIGH POINT, NC 27262",High Point,NC,27262,35.98464,-80.0191108,kroger,4,3,4,3
"151 N Beaver Ln Beaver, WV 25813",Beaver,WV,25813,37.7507853,-81.1365177,kroger,4,3,4,3
"406 John Raine Drive Rainelle, WV 25962",Rainelle,WV,25962,37.966503,-80.7748258,kroger,4,3,4,3
"1734 Harper Rd Beckley, WV 25801",Beckley,WV,25801,37.7891065,-81.2025531,kroger,4,3,4,3
"133 Beckley Crossing Beckley, WV 25801",Beckley,WV,25801,37.8012928,-81.1816577,kroger,4,3,4,3
"411 Mall Rd Oak Hill, WV 25901",Oak Hill,WV,25901,38.0124177,-81.1276549,kroger,4,3,4,3
"31 Midway St Bristol, VA 24201",Bristol,VA,24201,36.5962501,-82.2153137,kroger,4,3,4,3
"466 Cummings St Abingdon, VA 24210",Abingdon,VA,24210,36.7059125,-81.9740139,kroger,4,3,4,3
"1664 E Stone Dr Kingsport, TN 37660",Kingsport,TN,37660,36.5487385,-82.5157411,kroger,4,3,4,3
"112 Sunset Dr Johnson City, TN 37604",Johnson City,TN,37604,36.343499,-82.379842,kroger,4,3,4,3
"1805 W State Of Franklin Rd Johnson City, TN 37604",Johnson City,TN,37604,36.2998505,-82.3803117,kroger,4,3,4,3
"1461 Blowing Rock Rd Boone, NC 28607",Boone,NC,28607,36.2021857,-81.6626135,kroger,4,3,4,3
"240 Shadowline Drive BOONE, NC 28607",Boone,NC,28607,36.202342,-81.6593524,kroger,4,3,4,3
"25 Holden Rd Logan, WV 25601",Logan,WV,25601,37.8451023,-82.0144373,kroger,4,3,4,3
"515 N 12Th St Middlesboro, KY 40965",Middlesboro,KY,40965,36.613695,-83.7048852,kroger,4,3,4,3
"450 11Th St Elkins, WV 26241",Elkins,WV,26241,38.9187102,-79.8438147,kroger,4,3,4,3
"5116 N Roxboro Rd Durham, NC 27704",Durham,NC,27704,36.069227,-78.906498,kroger,4,3,4,3
"1501 Horton Road Durham, NC 27705",Durham,NC,27705,36.0563491,-78.9308364,kroger,4,3,4,3
"1802 N Pointe Dr Durham, NC 27705",Durham,NC,27705,36.029752,-78.920454,kroger,4,3,4,3
"3457 Hillsborough Rd Durham, NC 27705",Durham,NC,27705,36.018641,-78.948682,kroger,4,3,4,3
"2107 Hillsborough Rd Durham, NC 27705",Durham,NC,27705,36.0095316,-78.924086,kroger,4,3,4,3
"1800 Martin Luther King Jr. Boulevard Chapel Hill, NC 27514",Chapel Hill,NC,27514,35.9683503,-79.0585928,kroger,4,3,4,3
"1817 Martin Luther King Jr. Parkway DURHAM, NC 27707",Durham,NC,27707,35.9596151,-78.9589978,kroger,4,3,4,3
"1432 Brogden Woods Dr WAKE FOREST, NC 27587",Wake Forest,NC,27587,35.9905035,-78.6934653,kroger,4,3,4,3
"2110 S. Estes Dr Ste OP-4 Chapel Hill, NC 27514",Chapel Hill,NC,27514,35.9296154,-79.0265544,kroger,4,3,4,3
"1125 West NC 54 Highway DURHAM, NC 27707",Durham,NC,27707,35.9176223,-78.9585066,kroger,4,3,4,3
"310 N Greensboro St Carrboro, NC 27510",Carrboro,NC,27510,35.912364,-79.070885,kroger,4,3,4,3
"202 E NC Highway 54 Durham, NC 27713",Durham,NC,27713,35.9127223,-78.9365485,kroger,4,3,4,3
"116 W. Barbee Chapel Road CHAPEL HILL, NC 27517",Chapel Hill,NC,27517,35.9064668,-79.0108837,kroger,4,3,4,3
"4221 Corners Pkwy Raleigh, NC 27617",Raleigh,NC,27617,35.91925,-78.788053,kroger,4,3,4,3
"3265 Smoot Ave Madison, WV 25130",Madison,WV,25130,38.074603,-81.821733,kroger,4,3,4,3
"1356 Smoot Avenue Danville, WV 25053",Danville,WV,25053,38.0746335,-81.8216892,kroger,4,3,4,3
"10635 Maccorkle Ave Marmet, WV 25315",Marmet,WV,25315,38.2400889,-81.5599386,kroger,4,3,4,3
"5717 Maccorkle Ave Se Charleston, WV 25304",Charleston,WV,25304,38.3112419,-81.5652377,kroger,4,3,4,3
"1100 Fledderjohn Rd Charleston, WV 25314",Charleston,WV,25314,38.3398665,-81.6774653,kroger,4,3,4,3
"101 Mullins Rd Charleston, WV 25314",Charleston,WV,25314,38.3418356,-81.6652435,kroger,4,3,4,3
"101 Lee Street W. Charleston, WV 25302",Charleston,WV,25302,38.3593404,-81.6419717,kroger,4,3,4,3
"981 Dunbar Village Plz Dunbar, WV 25064",Dunbar,WV,25064,38.3577902,-81.7345197,kroger,4,3,4,3
"2908 State St Gassaway, WV 26624",Gassaway,WV,26624,38.6582624,-80.7494591,kroger,4,3,4,3
"500 Delaware Ave Charleston, WV 25302",Charleston,WV,25302,38.3627458,-81.6448892,kroger,4,3,4,3
"5 River Walk Mall South Charleston, WV 25303",South Charleston,WV,25303,38.3652643,-81.7102771,kroger,4,3,4,3
"223 The Crossings S/C Elkview, WV 25071",Elkview,WV,25071,38.45936,-81.49904,kroger,4,3,4,3
"1439 Maccorkle Ave Saint Albans, WV 25177",Saint Albans,WV,25177,38.3871888,-81.8262146,kroger,4,3,4,3
"5450 Big Tyler Rd Charleston, WV 25313",Charleston,WV,25313,38.4275163,-81.7865233,kroger,4,3,4,3
"101 Great Teays Blvd Scott Depot, WV 25560",Scott Depot,WV,25560,38.451511,-81.933844,kroger,4,3,4,3
"6360 Us Route 60 E Barboursville, WV 25504",Barboursville,WV,25504,38.4156976,-82.3025786,kroger,4,3,4,3
"6306 County Road 107 Proctorville, OH 45669",Proctorville,OH,45669,38.4369666,-82.3867775,kroger,4,3,4,3
"2627 5Th Ave Huntington, WV 25702",Huntington,WV,25702,38.4252641,-82.4067332,kroger,4,3,4,3
"106 Mcgraw Street Ripley, WV 25271",Ripley,WV,25271,38.8197513,-81.7218611,kroger,4,3,4,3
"19 7Th Ave W Huntington, WV 25701",Huntington,WV,25701,38.4138346,-82.4567304,kroger,4,3,4,3
"711 Martin Luther King Jr Blvd Ashland, KY 41101",Ashland,KY,41101,38.4776993,-82.6497272,kroger,4,3,4,3
"370 Diederich Blvd Ashland, KY 41101",Ashland,KY,41101,38.501485,-82.6816677,kroger,4,3,4,3
"530 E Main St Jackson, OH 45640",Jackson,OH,45640,39.0481938,-82.6300991,kroger,4,3,4,3
"919 E State St Athens, OH 45701",Athens,OH,45701,39.3356404,-82.069268,kroger,4,3,4,3
"9101 Ohio River Rd Wheelersburg, OH 45694",Wheelersburg,OH,45694,38.7130139,-82.8580517,kroger,4,3,4,3
"930 Division St Parkersburg, WV 26101",Parkersburg,WV,26101,39.2494206,-81.5574612,kroger,4,3,4,3
"1008 Washington Blvd Belpre, OH 45714",Belpre,OH,45714,39.2754747,-81.5806893,kroger,4,3,4,3
"2007 7Th St Parkersburg, WV 26101",Parkersburg,WV,26101,39.2698071,-81.5213775,kroger,4,3,4,3
"965 Poplar St Nelsonville, OH 45764",Nelsonville,OH,45764,39.4517722,-82.2207556,kroger,4,3,4,3
"19471 Lake Drive Trimble, OH 45782",Trimble,OH,45782,39.4835771,-82.0798874,kroger,4,3,4,3
"811 Gay St Portsmouth, OH 45662",Portsmouth,OH,45662,38.736087,-82.9955819,kroger,4,3,4,3
"40 Acme St Marietta, OH 45750",Marietta,OH,45750,39.4123277,-81.428585,kroger,4,3,4,3
"401 Matthew St Marietta, OH 45750",Marietta,OH,45750,39.431634,-81.464633,kroger,4,3,4,3
"31550 Chieftain Dr Logan, OH 43138",Logan,OH,43138,39.5462844,-82.4340922,kroger,4,3,4,3
"240 W Main St McConnelsville, OH 43756",Mcconnelsville,OH,43756,39.6486784,-81.8562293,kroger,4,3,4,3
"610 Carroll St New Lexington, OH 43764",New Lexington,OH,43764,39.7215345,-82.2031385,kroger,4,3,4,3
"80 Skyline Plaza Dr. Buckhannon, WV 26201",Buckhannon,WV,26201,38.9735058,-80.2308613,kroger,4,3,4,3
"130 Lexington Pkwy Lexington, NC 27295",Lexington,NC,27295,35.780066,-80.322718,kroger,4,3,4,3
"850 Jake Alexander Boulevard W. Salisbury, NC 28144",Salisbury,NC,28144,35.6681045,-80.4970447,kroger,4,3,4,3
"118 Argus Lane Mooresville, NC 28117",Mooresville,NC,28117,35.6031016,-80.8949897,kroger,4,3,4,3
"134-H Town Center Dr MOORESVILLE, NC 28117",Mooresville,NC,28117,35.5855777,-80.8760122,kroger,4,3,4,3
"601 Griffith St Davidson, NC 28036",Davidson,NC,28036,35.501831,-80.861704,kroger,4,3,4,3
"431 Peninsula Drive DAVIDSON, NC 28036",Davidson,NC,28036,35.5005211,-80.8601276,kroger,4,3,4,3
"1245 (Hwy 29) Concord Parkway N. Suite 1 Concord, NC 28025",Concord,NC,28025,35.4327004,-80.6059238,kroger,4,3,4,3
"21720 Catawba Ave Cornelius, NC 28031",Cornelius,NC,28031,35.4812445,-80.856505,kroger,4,3,4,3
"11124 Renaissance Drive DAVIDSON, NC 28036",Davidson,NC,28036,35.4426289,-80.7624906,kroger,4,3,4,3
"358 George W Liles Pkwy NW Concord, NC 28027",Concord,NC,28027,35.412218,-80.663273,kroger,4,3,4,3
"19815 North Cove Road CORNELIUS, NC 28031",Cornelius,NC,28031,35.4775366,-80.8941263,kroger,4,3,4,3
"9900 Poplar Tent Road Suite 140 CONCORD, NC 28027",Concord,NC,28027,35.4189694,-80.7427085,kroger,4,3,4,3
"9759 Sam Furr Rd Huntersville, NC 28078",Huntersville,NC,28078,35.4442876,-80.8616483,kroger,4,3,4,3
"7715 Regency Lake Dr HUNTERSVILLE, NC 28078",Huntersville,NC,28078,35.4436806,-80.8954495,kroger,4,3,4,3
"9925 Rose Commons Drive Huntersville, NC 28078",Huntersville,NC,28078,35.4091646,-80.8619882,kroger,4,3,4,3
"5810 Highland Shoppes Dr Charlotte, NC 28269",Charlotte,NC,28269,35.371535,-80.782912,kroger,4,3,4,3
"149 Cross Center Rd Denver, NC 28037",Denver,NC,28037,35.443485,-80.995653,kroger,4,3,4,3
"2720 W. Mallard Creek Church Road CHARLOTTE, NC 28262",Charlotte,NC,28262,35.3415123,-80.764915,kroger,4,3,4,3
"12190 University City Blvd. Harrisburg, NC 28075",Harrisburg,NC,28075,35.3153039,-80.6749817,kroger,4,3,4,3
"8445 Davis Lake Pkwy Charlotte, NC 28269",Charlotte,NC,28269,35.3341235,-80.8144065,kroger,4,3,4,3
"817 North First Street Albemarle, NC 28001",Albemarle,NC,28001,35.3619629,-80.1999484,kroger,4,3,4,3
"8600 University City Blvd. Charlotte, NC 28213",Charlotte,NC,28213,35.2962342,-80.7383467,kroger,4,3,4,3
"9641 Brookdale Dr Charlotte, NC 28215",Charlotte,NC,28215,35.28272,-80.669485,kroger,4,3,4,3
"4701 Smith Farm Rd Charlotte, NC 28216",Charlotte,NC,28216,35.3351076,-80.9338145,kroger,4,3,4,3
"3909 Corning Place Charlotte, NC 28216",Charlotte,NC,28216,35.327666,-80.94266,kroger,4,3,4,3
"325 West Sixth Street Charlotte, NC 28202",Charlotte,NC,28202,35.2310155,-80.8439104,kroger,4,3,4,3
"1704 Central Ave CHARLOTTE, NC 28205",Charlotte,NC,28205,35.2198011,-80.8100881,kroger,4,3,4,3
"305 Ivey Lane Pinehurst, NC 28374",Pinehurst,NC,28374,35.2052779,-79.4841348,kroger,4,3,4,3
"400 Mill Creek Road Carthage, NC 28327",Carthage,NC,28327,35.2269615,-79.3958352,kroger,4,3,4,3
"11109 US 15-501 Hwy Unit 1804 ABERDEEN, NC 28315",Aberdeen,NC,28315,35.1564511,-79.4167212,kroger,4,3,4,3
"88 Chatham Downs Chapel Hill, NC 27517",Chapel Hill,NC,27517,35.8309838,-79.0864031,kroger,4,3,4,3
"10140 Green Level Church Rd Cary, NC 27519",Cary,NC,27519,35.8211179,-78.900703,kroger,4,3,4,3
"750 W. Williams Street Apex, NC 27539",Apex,NC,27539,35.7376806,-78.8625298,kroger,4,3,4,3
"324 Village Walk Dr Holly Springs, NC 27540",Holly Springs,NC,27540,35.6395862,-78.8391135,kroger,4,3,4,3
"501 Village Walk Drive Holly Springs, NC 27540",Holly Springs,NC,27540,35.6401901,-78.8364868,kroger,4,3,4,3
"7145 Okelly Chapel Rd Cary, NC 27519",Cary,NC,27519,35.843724,-78.887769,kroger,4,3,4,3
"98 Cornerstone Drive CARY, NC 27519",Cary,NC,27519,35.7903054,-78.8522718,kroger,4,3,4,3
"4093 Davis Drive MORRISVILLE, NC 27560",Morrisville,NC,27560,35.8352986,-78.858459,kroger,4,3,4,3
"940 US Highway 64 W Apex, NC 27523",Apex,NC,27523,35.74561,-78.82196,kroger,4,3,4,3
"5277 Sunset Lake Road Holly Springs, NC 27540",Holly Springs,NC,27540,35.6664199,-78.7962088,kroger,4,3,4,3
"3430 Ten Ten Rd Cary, NC 27518",Cary,NC,27518,35.7022751,-78.7920984,kroger,4,3,4,3
"1273 NW Maynard Rd Cary, NC 27513",Cary,NC,27513,35.7854462,-78.8120607,kroger,4,3,4,3
"1371 East Broad St Ext Fuquay-Varina, NC 27526",Fuquay-Varina,NC,27526,35.5942094,-78.7768101,kroger,4,3,4,3
"2080 Kildaire Farm Road Cary, NC 27511",Cary,NC,27511,35.735267,-78.780582,kroger,4,3,4,3
"270 Grande Heights Dr Cary, NC 27513",Cary,NC,27513,35.804652,-78.780558,kroger,4,3,4,3
"885 Walnut St. Cary, NC 27511",Cary,NC,27511,35.7752649,-78.7647293,kroger,4,3,4,3
"1151 Tryon Village Drive CARY, NC 27518",Cary,NC,27518,35.7470577,-78.7433543,kroger,4,3,4,3
"5563 Western Boulevard  Suite 6A Raleigh, NC 27606",Raleigh,NC,27606,35.7841226,-78.720309,kroger,4,3,4,3
"8101 Fayetteville Rd Fuquay-Varina, NC 27603",Fuquay-Varina,NC,27603,35.663363,-78.699336,kroger,4,3,4,3
"3201-123 Edwards Mill Road Raleigh, NC 27612",Raleigh,NC,27612,35.825719,-78.7074296,kroger,4,3,4,3
"13210 Strickland Road RALEIGH, NC 27613",Raleigh,NC,27613,35.9091942,-78.7256102,kroger,4,3,4,3
"500 Oberlin Rd Raleigh, NC 27605",Raleigh,NC,27605,35.791544,-78.661821,kroger,4,3,4,3
"2051 W. Millbrook Rd. Raleigh, NC 27612",Raleigh,NC,27612,35.8569807,-78.6799713,kroger,4,3,4,3
"2603 Glenwood Ave Suite 101 RALEIGH, NC 27608",Raleigh,NC,27608,35.815498,-78.6603326,kroger,4,3,4,3
"7400 Creedmoor Road RALEIGH, NC 27612",Raleigh,NC,27612,35.887042,-78.6777303,kroger,4,3,4,3
"8345 Creedmoor Rd Raleigh, NC 27613",Raleigh,NC,27613,35.900728,-78.682465,kroger,4,3,4,3
"120-100 St. Albans Drive Raleigh, NC 27609",Raleigh,NC,27609,35.8371559,-78.6387279,kroger,4,3,4,3
"6024 Falls of the Neuse Raleigh, NC 27609",Raleigh,NC,27609,35.8655206,-78.6182992,kroger,4,3,4,3
"9600 Falls Of The Neuse Road RALEIGH, NC 27615",Raleigh,NC,27615,35.9047877,-78.6010464,kroger,4,3,4,3
"14520 John Rex Blvd Raleigh, NC 27614",Raleigh,NC,27614,35.9470521,-78.5428303,kroger,4,3,4,3
"3638 Rogers Road Wake Forest, NC 27587",Wake Forest,NC,27587,35.9443459,-78.5047273,kroger,4,3,4,3
"7800-J Stevens Mill Rd STALLINGS, NC 28104",Stallings,NC,28104,35.1400158,-80.6234802,kroger,4,3,4,3
"7036 Brighton Park Dr MINT HILL, NC 28227",Mint Hill,NC,28227,35.1726586,-80.6609305,kroger,4,3,4,3
"15080-P Idlewild Rd Matthews, NC 28104",Matthews,NC,28104,35.12202,-80.653666,kroger,4,3,4,3
"5706 Wyalong Dr Charlotte, NC 28227",Charlotte,NC,28227,35.1729346,-80.7090276,kroger,4,3,4,3
"6610 Old Monroe Rd Indian Trail, NC 28079",Indian Trail,NC,28079,35.047284,-80.648672,kroger,4,3,4,3
"1811 Matthews Township Parkway MATTHEWS, NC 28105",Matthews,NC,28105,35.1248853,-80.709793,kroger,4,3,4,3
"1351 Chestnut Lane Matthews, NC 28104",Matthews,NC,28104,35.0683,-80.7005881,kroger,4,3,4,3
"1621 N. Sardis Road CHARLOTTE, NC 28270",Charlotte,NC,28270,35.140704,-80.7386878,kroger,4,3,4,3
"3100 Weddington Road MATTHEWS, NC 28105",Matthews,NC,28105,35.0827724,-80.7329901,kroger,4,3,4,3
"67 Flowers Crossroads Way CLAYTON, NC 27527",Clayton,NC,27527,35.6559362,-78.3471877,kroger,4,3,4,3
"2800 Raeford Road FAYETTEVILLE, NC 28303",Fayetteville,NC,28303,35.047329,-78.9232269,kroger,4,3,4,3
"3050 Traemoor Village Dr FAYETTEVILLE, NC 28306",Fayetteville,NC,28306,34.9824429,-79.0145006,kroger,4,3,4,3
"2120 Wayne Memorial Drive Goldsboro, NC 27534",Goldsboro,NC,27534,35.3956653,-77.9626795,kroger,4,3,4,3
"3401 Raleigh Rd Parkway W. Suite 10A Wilson, NC 27896",Wilson,NC,27896,35.740786,-77.9626742,kroger,4,3,4,3
"3040 S. Evans St GREENVILLE, NC 27834",Greenville,NC,27834,35.5810813,-77.3832879,kroger,4,3,4,3
"1900 E Fire Tower Road Greenville, NC 27858",Greenville,NC,27858,35.5652924,-77.3554382,kroger,4,3,4,3
"2020 East Firetower Road Suite 101 Greenville, NC 27858",Greenville,NC,27858,35.567052,-77.348543,kroger,4,3,4,3
"3565 ML King Jr. Blvd New Bern, NC 28562",New Bern,NC,28562,35.0984303,-77.09881,kroger,4,3,4,3
"2032 Waterscape Way New Bern, NC 28562",New Bern,NC,28562,35.033836,-77.012691,kroger,4,3,4,3
"2012 South Croatan Highway KILL DEVIL HILLS, NC 27948",Kill Devil Hills,NC,27948,35.9925307,-75.6516353,kroger,4,3,4,3
"112 South Sharon Amity Road Charlotte, NC 28211",Charlotte,NC,28211,35.1774346,-80.801145,kroger,4,3,4,3
"1015 Providence Rd CHARLOTTE, NC 28207",Charlotte,NC,28207,35.1956997,-80.8264705,kroger,4,3,4,3
"5920 Weddington-Monroe Road Wesley Chapel, NC 28104",Wesley Chapel,NC,28104,34.9998467,-80.6999655,kroger,4,3,4,3
"3333 Pineville-Matthews Road Charlotte, NC 28226",Charlotte,NC,28226,35.0962486,-80.7846129,kroger,4,3,4,3
"1227 East Boulevard CHARLOTTE, NC 28203",Charlotte,NC,28203,35.2036585,-80.8447716,kroger,4,3,4,3
"6701 Morrison Road CHARLOTTE, NC 28211",Charlotte,NC,28211,35.1528589,-80.8257052,kroger,4,3,4,3
"10616 Providence Road CHARLOTTE, NC 28277",Charlotte,NC,28277,35.0653192,-80.7734119,kroger,4,3,4,3
"7823 Colony Road Charlotte, NC 28226",Charlotte,NC,28226,35.1064892,-80.8063346,kroger,4,3,4,3
"11041 Golf Links Dr N Charlotte, NC 28277",Charlotte,NC,28277,35.0544532,-80.7705587,kroger,4,3,4,3
"11135 Golf Links Drive Charlotte, NC 28277",Charlotte,NC,28277,35.0509901,-80.7695297,kroger,4,3,4,3
"4101 Park Rd Charlotte, NC 28209",Charlotte,NC,28209,35.175698,-80.850099,kroger,4,3,4,3
"4100 Carmel Road Charlotte, NC 28226",Charlotte,NC,28226,35.117147,-80.8243163,kroger,4,3,4,3
"13639 Providence Rd MATTHEWS, NC 28104",Matthews,NC,28104,35.0240018,-80.7609548,kroger,4,3,4,3
"5030 Park Road CHARLOTTE, NC 28209",Charlotte,NC,28209,35.1616388,-80.8495031,kroger,4,3,4,3
"2717 South Blvd. Charlotte, NC 28209",Charlotte,NC,28209,35.2003904,-80.8666532,kroger,4,3,4,3
"7852 Rea Road CHARLOTTE, NC 28277",Charlotte,NC,28277,35.0599677,-80.8167062,kroger,4,3,4,3
"8538 Park Road CHARLOTTE, NC 28210",Charlotte,NC,28210,35.1166484,-80.8581978,kroger,4,3,4,3
"9720 Rea Road CHARLOTTE, NC 28277",Charlotte,NC,28277,35.0363763,-80.8067898,kroger,4,3,4,3
"905 South Point Road Belmont, NC 28012",Belmont,NC,28012,35.2356044,-81.0361823,kroger,4,3,4,3
"3350 Robinwood Rd Gastonia, NC 28054",Gastonia,NC,28054,35.2159074,-81.1578546,kroger,4,3,4,3
"4821 Berewick Town Center Dr. Charlotte, NC 28278",Charlotte,NC,28278,35.1599728,-80.97268,kroger,4,3,4,3
"636 Spartanburg Hwy Hendersonville, NC 28792",Hendersonville,NC,28792,35.3090299,-82.4552222,kroger,4,3,4,3
"100 Wade Hampton Blvd Greenville, SC 29609",Greenville,SC,29609,34.861169,-82.385935,kroger,4,3,4,3
"1720 Augusta Street Greenville, SC 29605",Greenville,SC,29605,34.8270005,-82.3990699,kroger,4,3,4,3
"13000 South Tryon Street Charlotte, NC 28278",Charlotte,NC,28278,35.1032739,-80.9909196,kroger,4,3,4,3
"867 Stockbridge Dr Fort Mill, SC 29708",Fort Mill,SC,29708,35.0615172,-80.9946281,kroger,4,3,4,3
"136 Merrimon Ave Asheville, NC 28801",Asheville,NC,28801,35.6042089,-82.5539601,kroger,4,3,4,3
"2750 Celanese Road ROCK HILL, SC 29730",Rock Hill,SC,29730,34.9771476,-81.0279523,kroger,4,3,4,3
"1750 Highway 160 W Fort Mill, SC 29708",Fort Mill,SC,29708,35.035257,-80.970637,kroger,4,3,4,3
"500 Mercantile Place Fort Mill, SC 29715",Fort Mill,SC,29715,35.0575656,-80.9350204,kroger,4,3,4,3
"15007 John J. Delaney Drive Charlotte, NC 28277",Charlotte,NC,28277,35.0531287,-80.849012,kroger,4,3,4,3
"16625 Lancaster Highway Charlotte, NC 28277",Charlotte,NC,28277,35.0242671,-80.8481162,kroger,4,3,4,3
"6271 Carolina Commons Dr INDIAN LAND, SC 29707",Indian Land,SC,29707,34.9369015,-80.838479,kroger,4,3,4,3
"8157 Kensington Drive WAXHAW, NC 28173",Waxhaw,NC,28173,34.9538547,-80.7594636,kroger,4,3,4,3
"1930 W. Palmetto Street Florence, SC 29501",Florence,SC,29501,34.1879196,-79.8057751,kroger,4,3,4,3
"3501 Oleander Drive #18 WILMINGTON, NC 28403",Wilmington,NC,28403,34.2169852,-77.9027207,kroger,4,3,4,3
"820 South College Street Wilmington, NC 28403",Wilmington,NC,28403,34.2200189,-77.8858453,kroger,4,3,4,3
"2021 Old Regent Way Leland, NC 28451",Leland,NC,28451,34.2194657,-78.0193355,kroger,4,3,4,3
"2800 S. College Rd Wilmington, NC 28412",Wilmington,NC,28412,34.1966872,-77.8905119,kroger,4,3,4,3
"6805 Parker Farm Rd Unit #C10 Wilmington, NC 28405",Wilmington,NC,28405,34.2362431,-77.8312973,kroger,4,3,4,3
"1940 Eastwood Rd WILMINGTON, NC 28403",Wilmington,NC,28403,34.2209208,-77.8221637,kroger,4,3,4,3
"5920 Carolina Beach Road Wilmington, NC 28412",Wilmington,NC,28412,34.1247729,-77.9024682,kroger,4,3,4,3
"8260 Market Street Wilmington, NC 28411",Wilmington,NC,28411,34.2979076,-77.7901491,kroger,4,3,4,3
"203 Alston Boulevard Hampstead, NC 28443",Hampstead,NC,28443,34.4508682,-77.6052461,kroger,4,3,4,3
"781 Main Street North Myrtle Beach, SC 29582",North Myrtle Beach,SC,29582,33.8265946,-78.6799374,kroger,4,3,4,3
"9610 N Kings Hwy Myrtle Beach, SC 29572",Myrtle Beach,SC,29572,33.7770368,-78.7931153,kroger,4,3,4,3
"3735 Renee Drive Myrtle Beach, SC 29579",Myrtle Beach,SC,29579,33.7609408,-78.9663925,kroger,4,3,4,3
"5000 US Hwy 70 Suite 100 Morehead City, NC 28557",Morehead City,NC,28557,34.7359183,-76.7923682,kroger,4,3,4,3
"2939 S Highway 17 Murrells Inlet, SC 29576",Murrells Inlet,SC,29576,33.5837914,-79.0125762,kroger,4,3,4,3
"811 Parkway Gatlinburg, TN 37738",Gatlinburg,TN,37738,35.711449,-83.519042,kroger,4,3,4,3
"303 New Riverside Dr Sevierville, TN 37862",Sevierville,TN,37862,35.86377,-83.5075,kroger,4,3,4,3
"3071 Parkway Pigeon Forge, TN 37863",Pigeon Forge,TN,37863,35.795478,-83.562142,kroger,4,3,4,3
"220 Wears Valley Rd Pigeon Forge, TN 37863",Pigeon Forge,TN,37863,35.804633,-83.5820911,kroger,4,3,4,3
"1840 Parkway Sevierville, TN 37862",Sevierville,TN,37862,35.828195,-83.575313,kroger,4,3,4,3
"119 Forks of the River Pkwy Sevierville, TN 37862",Sevierville,TN,37862,35.869175,-83.5686,kroger,4,3,4,3
"702 Winfield Dunn Pkwy Sevierville, TN 37876",Sevierville,TN,37876,35.8793843,-83.5753107,kroger,4,3,4,3
"11305 Chapman Hwy SE Seymour, TN 37865",Seymour,TN,37865,35.871064,-83.758633,kroger,4,3,4,3
"10721 Chapman Hwy Seymour, TN 37865",Seymour,TN,37865,35.8771278,-83.774359,kroger,4,3,4,3
"1602 E Lamar Alexander Pkwy Maryville, TN 37804",Maryville,TN,37804,35.754753,-83.950227,kroger,4,3,4,3
"2409 US Highway 411 S Maryville, TN 37801",Maryville,TN,37801,35.7175,-84.01435,kroger,4,3,4,3
"220 Foothills Mall Dr Maryville, TN 37801",Maryville,TN,37801,35.73883,-83.994009,kroger,4,3,4,3
"507 N. Foothills Plaza Maryville, TN 37801",Maryville,TN,37801,35.741639,-83.9944156,kroger,4,3,4,3
"244 S Hall Rd Alcoa, TN 37701",Alcoa,TN,37701,35.7638937,-83.9715229,kroger,4,3,4,3
"225 N Hall Rd Alcoa, TN 37701",Alcoa,TN,37701,35.767928,-83.974933,kroger,4,3,4,3
"9536 Northshore Dr SW Knoxville, TN 37922",Knoxville,TN,37922,35.860205,-84.06897,kroger,4,3,4,3
"9501 S Northshore Dr Knoxville, TN 37922",Knoxville,TN,37922,35.8625823,-84.0689519,kroger,4,3,4,3
"350 Highway 321 N Lenoir City, TN 37771",Lenoir City,TN,37771,35.80101,-84.26066,kroger,4,3,4,3
"7400 Chapman Hwy Knoxville, TN 37920",Knoxville,TN,37920,35.909469,-83.846339,kroger,4,3,4,3
"115 Bill Wigington Pkwy Jasper, GA 30143",Jasper,GA,30143,34.4666765,-84.4625828,kroger,4,3,4,3
"378 Marketplace Parkway Dawsonville, GA 30534",Dawsonville,GA,30534,34.350197,-84.053207,kroger,4,3,4,3
"3630 Thompson Bridge Rd Gainesville, GA 30506",Gainesville,GA,30506,34.3735899,-83.8698354,kroger,4,3,4,3
"7467 Saint Andrews Rd Irmo, SC 29063",Irmo,SC,29063,34.085839,-81.186288,kroger,4,3,4,3
"1795 Whiskey Rd Aiken, SC 29803",Aiken,SC,29803,33.5236551,-81.7220202,kroger,4,3,4,3
"3403 Forest Drive Columbia, SC 29204",Columbia,SC,29204,34.0199676,-80.9912105,kroger,4,3,4,3
"1284 Knox Ave North Augusta, SC 29841",North Augusta,SC,29841,33.5063667,-81.9603801,kroger,4,3,4,3
"1028 Roberts Branch Pkwy Columbia, SC 29203",Columbia,SC,29203,34.143218,-80.951511,kroger,4,3,4,3
"2801 Washington Road Augusta, GA 30909",Augusta,GA,30909,33.5118756,-82.0293532,kroger,4,3,4,3
"10136 Two Notch Rd Columbia, SC 29229",Columbia,SC,29229,34.114865,-80.882523,kroger,4,3,4,3
"4355 Washington Rd Evans, GA 30809",Evans,GA,30809,33.5417455,-82.1321558,kroger,4,3,4,3
"4115 Columbia Road Martinez, GA 30907",Martinez,GA,30907,33.5095909,-82.1081989,kroger,4,3,4,3
"435 Lewiston Road Grovetown, GA 30813",Grovetown,GA,30813,33.48969,-82.202014,kroger,4,3,4,3
"680 Bacons Bridge Rd. Summerville, SC 29485",Summerville,SC,29485,32.9995652,-80.1856072,kroger,4,3,4,3
"9500 Dorchester Rd Summerville, SC 29485",Summerville,SC,29485,32.9360427,-80.1403499,kroger,4,3,4,3
"2035 Hwy 41 MT. PLEASANT, SC 29466",Mt. Pleasant,SC,29466,32.8978185,-79.8216331,kroger,4,3,4,3
"290 East Bay Street Charleston, SC 29401",Charleston,SC,29401,32.7845414,-79.928185,kroger,4,3,4,3
"975 Savannah Hwy Suite 135 Charleston, SC 29407",Charleston,SC,29407,32.7808388,-79.9897975,kroger,4,3,4,3
"1739 Maybank Hwy Charleston, SC 29412",Charleston,SC,29412,32.761932,-79.9770666,kroger,4,3,4,3
"920 Houston Northcutt Boulevard Suite N MT. PLEASANT, SC 29464",Mt. Pleasant,SC,29464,32.8019317,-79.8917855,kroger,4,3,4,3
"675 Folly Road Charleston, SC 29412",Charleston,SC,29412,32.7462735,-79.9719221,kroger,4,3,4,3
"1005 Harbor View Rd. Charleston, SC 29412",Charleston,SC,29412,32.7416794,-79.936317,kroger,4,3,4,3
"1812 Sam Rittenberg Bldg. #2 Charleston, SC 29407",Charleston,SC,29407,32.8019257,-80.019577,kroger,4,3,4,3
"1220 Ben Sawyer Blvd Suite C Mount Pleasant, SC 29464",Mount Pleasant,SC,29464,32.795377,-79.859666,kroger,4,3,4,3
"620 Long Point Rd Suite H Mount Pleasant, SC 29464",Mount Pleasant,SC,29464,32.839663,-79.85639,kroger,4,3,4,3
"1985 Folly Rd Charleston, SC 29412",Charleston,SC,29412,32.68607,-79.96116,kroger,4,3,4,3
"1985 Folly Rd Charleston, SC 29412",Charleston,SC,29412,32.68583,-79.961367,kroger,4,3,4,3
"1981 Riveria Dr. Isle of Palms, SC 29464",Isle Of Palms,SC,29464,32.8204525,-79.8154063,kroger,4,3,4,3
"2195 Tea Planter Lane MT. PLEASANT, SC 29466",Mt. Pleasant,SC,29466,32.8394409,-79.8165612,kroger,4,3,4,3
"3865 W Ashley Circle Charleston, SC 29414",Charleston,SC,29414,32.826107,-80.085138,kroger,4,3,4,3
"1513 Palm Blvd. Isle of Palms, SC 29451",Isle Of Palms,SC,29451,32.7897606,-79.7869964,kroger,4,3,4,3
"515 Freshfields Dr. Johns Island, SC 29455",Johns Island,SC,29455,32.6066,-80.1477644,kroger,4,3,4,3
"301 Main Street HILTON HEAD, SC 29926",Hilton Head,SC,29926,32.2155444,-80.7219461,kroger,4,3,4,3
"125 Towne Dr Bluffton, SC 29910",Bluffton,SC,29910,32.2682593,-80.8583131,kroger,4,3,4,3
"42 Shelter Cove Lane Hilton Head, SC 29928",Hilton Head,SC,29928,32.1858848,-80.720339,kroger,4,3,4,3
"27 Discovery Dr Bluffton, SC 29910",Bluffton,SC,29910,32.274199,-80.917438,kroger,4,3,4,3
"33 Office Park Suite 100 Hilton Head, SC 29928",Hilton Head,SC,29928,32.152964,-80.7676455,kroger,4,3,4,3
"461 S Columbia Ave Rincon, GA 31326",Rincon,GA,31326,32.2732273,-81.2277145,kroger,4,3,4,3
"700 US Hwy 29 N Athens, GA 30601",Athens,GA,30601,33.9956197,-83.3342437,kroger,4,3,4,3
"1685 Old Pendergrass Rd Jefferson, GA 30549",Jefferson,GA,30549,34.121943,-83.607031,kroger,4,3,4,3
"1065 Baxter Street Athens, GA 30606",Athens,GA,30606,33.946658,-83.399326,kroger,4,3,4,3
"2301 College Station Road Athens, GA 30605",Athens,GA,30605,33.9216927,-83.3438949,kroger,4,3,4,3
"191 Alps Rd Athens, GA 30606",Athens,GA,30606,33.9472876,-83.4080077,kroger,4,3,4,3
"1931 Jesse Jewell Parkway Gainesville, GA 30501",Gainesville,GA,30501,34.315188,-83.798172,kroger,4,3,4,3
"1720 Epps Bridge Pkwy Athens, GA 30606",Athens,GA,30606,33.9131649,-83.4463404,kroger,4,3,4,3
"495 Johnny Mercer Blvd Savannah, GA 31410",Savannah,GA,31410,32.0161529,-80.9768114,kroger,4,3,4,3
"311 E Gwinnett St Savannah, GA 31401",Savannah,GA,31401,32.0658724,-81.0926696,kroger,4,3,4,3
"1900 E Victory Dr Suite 12 Savannah, GA 31404",Savannah,GA,31404,32.0455123,-81.0679998,kroger,4,3,4,3
"318 Mall Blvd Suite 100 Savannah, GA 31406",Savannah,GA,31406,32.00588,-81.112612,kroger,4,3,4,3
"7 Diamond Causeway Savannah, GA 31406",Savannah,GA,31406,31.956798,-81.098033,kroger,4,3,4,3
"5720 Ogeechee Rd Savannah, GA 31405",Savannah,GA,31405,32.0272744,-81.2258292,kroger,4,3,4,3
"53 Exchange St Richmond Hill, GA 31324",Richmond Hill,GA,31324,31.9565146,-81.3196117,kroger,4,3,4,3
"555 W Oglethorpe Hwy Hinesville, GA 31313",Hinesville,GA,31313,31.8357763,-81.5975332,kroger,4,3,4,3
"1122 Powers Ferry Rd SE Marietta, GA 30067",Marietta,GA,30067,33.9230054,-84.469894,kroger,4,3,4,3
"3300 Cobb Pkwy SE Atlanta, GA 30339",Atlanta,GA,30339,33.871835,-84.457852,kroger,4,3,4,3
"3240 South Cobb Drive Smyrna, GA 30080",Smyrna,GA,30080,33.8751433,-84.5336284,kroger,4,3,4,3
"2100 Roswell Rd Suite 2140 Marietta, GA 30062",Marietta,GA,30062,33.9675443,-84.4879663,kroger,4,3,4,3
"4715 S Atlanta Road Smyrna, GA 30339",Smyrna,GA,30339,33.8391681,-84.4822344,kroger,4,3,4,3
"4920 Roswell Rd Atlanta, GA 30342",Atlanta,GA,30342,33.8898191,-84.3834045,kroger,4,3,4,3
"227 Sandy Springs PL NE Sandy Springs, GA 30328",Sandy Springs,GA,30328,33.9202828,-84.3814432,kroger,4,3,4,3
"4880 Lower Roswell Rd Marietta, GA 30068",Marietta,GA,30068,33.9651166,-84.4089591,kroger,4,3,4,3
"3330 Piedmont Rd NE Atlanta, GA 30305",Atlanta,GA,30305,33.8455043,-84.3745415,kroger,4,3,4,3
"1000 Whitlock Ave NW Marietta, GA 30064",Marietta,GA,30064,33.9533665,-84.5813138,kroger,4,3,4,3
"1715 Howell Mill Rd NW Atlanta, GA 30318",Atlanta,GA,30318,33.8018234,-84.4124991,kroger,4,3,4,3
"3871 Peachtree Rd NE Atlanta, GA 30319",Atlanta,GA,30319,33.85637,-84.3446936,kroger,4,3,4,3
"4875 Floyd Rd SW Mableton, GA 30126",Mableton,GA,30126,33.8352744,-84.5741757,kroger,4,3,4,3
"1690 Powder Springs Rd SW Marietta, GA 30064",Marietta,GA,30064,33.9084559,-84.6031124,kroger,4,3,4,3
"2452 Morosgo Way Atlanta, GA 30324",Atlanta,GA,30324,33.822712,-84.365645,kroger,4,3,4,3
"900 Marietta Hwy Roswell, GA 30075",Roswell,GA,30075,34.0040692,-84.3894126,kroger,4,3,4,3
"4498 Chamblee Dunwoody Rd Dunwoody, GA 30338",Dunwoody,GA,30338,33.9226262,-84.3159392,kroger,4,3,4,3
"3162 Johnson Ferry Rd Marietta, GA 30062",Marietta,GA,30062,34.0260671,-84.4220731,kroger,4,3,4,3
"2960 Shallowford Rd Marietta, GA 30066",Marietta,GA,30066,34.0347971,-84.4666413,kroger,4,3,4,3
"1700 Monroe Drive NE Atlanta, GA 30324",Atlanta,GA,30324,33.80054,-84.3730262,kroger,4,3,4,3
"3855 Buford Hwy NE Atlanta, GA 30329",Atlanta,GA,30329,33.8554106,-84.3135811,kroger,4,3,4,3
"3595 Canton Rd Marietta, GA 30066",Marietta,GA,30066,34.0386966,-84.5309268,kroger,4,3,4,3
"1799 Briarcliff Rd NE Atlanta, GA 30306",Atlanta,GA,30306,33.8041591,-84.3363931,kroger,4,3,4,3
"2090 Dunwoody Club Dr Atlanta, GA 30350",Atlanta,GA,30350,33.9608906,-84.3011506,kroger,4,3,4,3
"2205 Lavista Rd NE Atlanta, GA 30329",Atlanta,GA,30329,33.815719,-84.31316,kroger,4,3,4,3
"725 Ponce de Leon Ave NE Atlanta, GA 30306",Atlanta,GA,30306,33.7737394,-84.3631041,kroger,4,3,4,3
"3600 Dallas Hwy SW Marietta, GA 30064",Marietta,GA,30064,33.9553155,-84.6562344,kroger,4,3,4,3
"570 E Crossville Rd Roswell, GA 30075",Roswell,GA,30075,34.0401035,-84.3454897,kroger,4,3,4,3
"590 Cascade Ave SW Atlanta, GA 30310",Atlanta,GA,30310,33.7374549,-84.433074,kroger,4,3,4,3
"630 Thornton Rd Lithia Springs, GA 30122",Lithia Springs,GA,30122,33.7898073,-84.6200042,kroger,4,3,4,3
"4150 Macland Rd Powder Springs, GA 30127",Powder Springs,GA,30127,33.9033852,-84.6751671,kroger,4,3,4,3
"2300 Holcomb Bridge Rd Roswell, GA 30076",Roswell,GA,30076,34.0052869,-84.2947367,kroger,4,3,4,3
"1225 Caroline St NE Atlanta, GA 30307",Atlanta,GA,30307,33.756079,-84.3480363,kroger,4,3,4,3
"3425 Cascade Rd SW Atlanta, GA 30311",Atlanta,GA,30311,33.724311,-84.4990675,kroger,4,3,4,3
"12050 Highway 92 Suite 112 Woodstock, GA 30188",Woodstock,GA,30188,34.0864683,-84.4861092,kroger,4,3,4,3
"3895 Cherokee St NW Kennesaw, GA 30144",Kennesaw,GA,30144,34.0486951,-84.6033157,kroger,4,3,4,3
"3559 Chamblee Tucker Rd Atlanta, GA 30341",Atlanta,GA,30341,33.883897,-84.247698,kroger,4,3,4,3
"8465 Holcomb Bridge Rd Suite 2000 Johns Creek, GA 30022",Johns Creek,GA,30022,33.9874062,-84.2689539,kroger,4,3,4,3
"800 Glenwood Avenue, SE Atlanta, GA 30316",Atlanta,GA,30316,33.742558,-84.35962,kroger,4,3,4,3
"3959 Lavista Rd Suite A Tucker, GA 30084",Tucker,GA,30084,33.843398,-84.2558491,kroger,4,3,4,3
"720 Commerce Dr Decatur, GA 30030",Decatur,GA,30030,33.778319,-84.29323,kroger,4,3,4,3
"2875 N Decatur Rd Decatur, GA 30033",Decatur,GA,30033,33.7918881,-84.2734003,kroger,4,3,4,3
"3000 Old Alabama Rd Alpharetta, GA 30022",Alpharetta,GA,30022,34.0230965,-84.2715981,kroger,4,3,4,3
"4400 Brownsville Rd Powder Springs, GA 30127",Powder Springs,GA,30127,33.8465711,-84.6993156,kroger,4,3,4,3
"12460 Crabapple Rd Alpharetta, GA 30004",Alpharetta,GA,30004,34.0857179,-84.3567523,kroger,4,3,4,3
"1160 Moreland Ave SE Atlanta, GA 30316",Atlanta,GA,30316,33.7224318,-84.347745,kroger,4,3,4,3
"6199 Highway 92 Acworth, GA 30102",Acworth,GA,30102,34.0904699,-84.585295,kroger,4,3,4,3
"1720 Mars Hill Rd NW Acworth, GA 30101",Acworth,GA,30101,33.9958096,-84.7045479,kroger,4,3,4,3
"3330 Cobb Pkwy NW Suite 200 Acworth, GA 30101",Acworth,GA,30101,34.036344,-84.6770134,kroger,4,3,4,3
"3030 Headland Dr SW Atlanta, GA 30311",Atlanta,GA,30311,33.6868782,-84.4877367,kroger,4,3,4,3
"505 Dacula Rd Dacula, GA 30019",Dacula,GA,30019,34.0012709,-83.9058238,kroger,4,3,4,3
"2700 Braselton Hwy Dacula, GA 30019",Dacula,GA,30019,34.0515213,-83.9302969,kroger,4,3,4,3
"7380 Spout Springs Rd Flowery Branch, GA 30542",Flowery Branch,GA,30542,34.1074935,-83.8756151,kroger,4,3,4,3
"3300 Hamilton Mill Rd Buford, GA 30519",Buford,GA,30519,34.0932104,-83.9375302,kroger,4,3,4,3
"1475 Buford Dr Lawrenceville, GA 30043",Lawrenceville,GA,30043,34.0049769,-83.9862692,kroger,4,3,4,3
"455 Grayson Hwy Lawrenceville, GA 30046",Lawrenceville,GA,30046,33.9386887,-83.9825989,kroger,4,3,4,3
"4025 Winder Hwy Flowery Branch, GA 30542",Flowery Branch,GA,30542,34.1964071,-83.8571975,kroger,4,3,4,3
"2121 Lawrenceville Suwanee Rd Suwanee, GA 30024",Suwanee,GA,30024,34.0034773,-84.0382911,kroger,4,3,4,3
"2100 Riverside Pkwy Lawrenceville, GA 30043",Lawrenceville,GA,30043,33.9667063,-84.0334642,kroger,4,3,4,3
"1911 Grayson Hwy Grayson, GA 30017",Grayson,GA,30017,33.8971903,-83.961997,kroger,4,3,4,3
"400 Peachtree Industrial Blvd Suwanee, GA 30024",Suwanee,GA,30024,34.06363,-84.0725,kroger,4,3,4,3
"910 Athens Hwy Loganville, GA 30052",Loganville,GA,30052,33.8593373,-83.9545782,kroger,4,3,4,3
"6555 Sugarloaf Pkwy Duluth, GA 30097",Duluth,GA,30097,33.9979602,-84.0898735,kroger,4,3,4,3
"1670 Scenic Hwy SW Snellville, GA 30078",Snellville,GA,30078,33.882987,-84.0078343,kroger,4,3,4,3
"6001 Cumming Hwy Sugar Hill, GA 30518",Sugar Hill,GA,30518,34.1220058,-84.0766676,kroger,4,3,4,3
"4753 Atlanta Hwy Loganville, GA 30052",Loganville,GA,30052,33.8312195,-83.8842679,kroger,4,3,4,3
"950 Herrington Rd Lawrenceville, GA 30044",Lawrenceville,GA,30044,33.94039,-84.0830135,kroger,4,3,4,3
"3050 Five Forks Trickum Rd SW Lilburn, GA 30047",Lilburn,GA,30047,33.8844257,-84.0602468,kroger,4,3,4,3
"3093 Steve Reynolds Blvd Duluth, GA 30096",Duluth,GA,30096,33.960459,-84.1437596,kroger,4,3,4,3
"4155 Lawrenceville Hwy NW Lilburn, GA 30047",Lilburn,GA,30047,33.9047568,-84.1211716,kroger,4,3,4,3
"3651 Peachtree Pkwy Suwanee, GA 30024",Suwanee,GA,30024,34.0695235,-84.1655638,kroger,4,3,4,3
"3035 Scenic Hwy S Suite 19 Snellville, GA 30039",Snellville,GA,30039,33.8249409,-84.0332928,kroger,4,3,4,3
"3455 Peachtree Industrial Blvd Duluth, GA 30096",Duluth,GA,30096,34.0058429,-84.1730832,kroger,4,3,4,3
"1595 Peachtree Pkwy Cumming, GA 30041",Cumming,GA,30041,34.1222698,-84.1689119,kroger,4,3,4,3
"2655 Freedom Pkwy Cumming, GA 30041",Cumming,GA,30041,34.2508344,-84.0912207,kroger,4,3,4,3
"11877 Douglas Rd Alpharetta, GA 30005",Alpharetta,GA,30005,34.0705621,-84.2076044,kroger,4,3,4,3
"5550 Bethelview Road Cumming, GA 30040",Cumming,GA,30040,34.169778,-84.185635,kroger,4,3,4,3
"1227 Rockbridge Rd SW Stone Mountain, GA 30087",Stone Mountain,GA,30087,33.8411557,-84.1329874,kroger,4,3,4,3
"10945 State Bridge Rd Alpharetta, GA 30022",Alpharetta,GA,30022,34.0496921,-84.2228106,kroger,4,3,4,3
"6050 Singleton Rd Norcross, GA 30093",Norcross,GA,30093,33.9033629,-84.1996802,kroger,4,3,4,3
"2325 Bethelview Rd Cumming, GA 30040",Cumming,GA,30040,34.2384495,-84.1931129,kroger,4,3,4,3
"5665 Atlanta Hwy Alpharetta, GA 30004",Alpharetta,GA,30004,34.1451658,-84.2498665,kroger,4,3,4,3
"4357 Lawrenceville Hwy Tucker, GA 30084",Tucker,GA,30084,33.8550929,-84.2069937,kroger,4,3,4,3
"12870 State Highway 9 Alpharetta, GA 30004",Alpharetta,GA,30004,34.0962674,-84.2778173,kroger,4,3,4,3
"1232 S Hairston Rd Stone Mountain, GA 30088",Stone Mountain,GA,30088,33.7593679,-84.1950041,kroger,4,3,4,3
"6678 Covington Hwy Lithonia, GA 30058",Lithonia,GA,30058,33.718677,-84.1444901,kroger,4,3,4,3
"3700 Salem Rd Covington, GA 30016",Covington,GA,30016,33.59414,-83.9682982,kroger,4,3,4,3
"5341 Highway 20 S Covington, GA 30016",Covington,GA,30016,33.5493011,-84.0152021,kroger,4,3,4,3
"3139 U.S. Highway 278 NE Covington, GA 30014",Covington,GA,30014,33.6044583,-83.8589644,kroger,4,3,4,3
"1745 GA-138 SE Conyers, GA 30013",Conyers,GA,30013,33.6438111,-84.0170068,kroger,4,3,4,3
"5900 East Lake Pkwy McDonough, GA 30253",Mcdonough,GA,30253,33.5062074,-84.143446,kroger,4,3,4,3
"301 Jonesboro Road McDonough, GA 30253",Mcdonough,GA,30253,33.4526773,-84.1695762,kroger,4,3,4,3
"101 Fairview Rd Ellenwood, GA 30294",Ellenwood,GA,30294,33.6193236,-84.2390944,kroger,4,3,4,3
"1750 Hudson Bridge Rd Stockbridge, GA 30281",Stockbridge,GA,30281,33.5031974,-84.244192,kroger,4,3,4,3
"4919 Flat Shoals Pkwy Decatur, GA 30034",Decatur,GA,30034,33.6791479,-84.2285409,kroger,4,3,4,3
"3618 Highway 138, SE Stockbridge, GA 30281",Stockbridge,GA,30281,33.5502535,-84.2714308,kroger,4,3,4,3
"2385 Wesley Chapel Rd Decatur, GA 30035",Decatur,GA,30035,33.7183148,-84.2174249,kroger,4,3,4,3
"5664 Jonesboro Rd Lake City, GA 30260",Lake City,GA,30260,33.60025,-84.336962,kroger,4,3,4,3
"3479 Memorial Drive Decatur, GA 30032",Decatur,GA,30032,33.7520033,-84.2693406,kroger,4,3,4,3
"10375 Tara Blvd Jonesboro, GA 30236",Jonesboro,GA,30236,33.4721875,-84.3384717,kroger,4,3,4,3
"8059 Tara Blvd Jonesboro, GA 30236",Jonesboro,GA,30236,33.5342457,-84.3664788,kroger,4,3,4,3
"7125 GA Highway 85 Riverdale, GA 30274",Riverdale,GA,30274,33.5602882,-84.4160801,kroger,4,3,4,3
"2685 Metropolitan Pkwy SW Atlanta, GA 30315",Atlanta,GA,30315,33.682837,-84.409058,kroger,4,3,4,3
"1524 Hwy 16 West Griffin, GA 30223",Griffin,GA,30223,33.2450201,-84.2942214,kroger,4,3,4,3
"134 Banks Xing Fayetteville, GA 30214",Fayetteville,GA,30214,33.4690874,-84.4488101,kroger,4,3,4,3
"6055 Old National Hwy College Park, GA 30349",College Park,GA,30349,33.5901144,-84.4705239,kroger,4,3,4,3
"6766 Hickory Flat Hwy Canton, GA 30115",Canton,GA,30115,34.171429,-84.4166476,kroger,4,3,4,3
"5341 Old Highway 5 Woodstock, GA 30188",Woodstock,GA,30188,34.141211,-84.503869,kroger,4,3,4,3
"8020 Cumming Hwy Canton, GA 30115",Canton,GA,30115,34.2524835,-84.3580832,kroger,4,3,4,3
"4045 Marietta Hwy Canton, GA 30114",Canton,GA,30114,34.193141,-84.5076025,kroger,4,3,4,3
"2295 Towne Lake Pkwy Woodstock, GA 30189",Woodstock,GA,30189,34.1125992,-84.5556694,kroger,4,3,4,3
"2809 N Columbia St Milledgeville, GA 31061",Milledgeville,GA,31061,33.153436,-83.2718596,kroger,4,3,4,3
"220 Tom Hill Sr Blvd Macon, GA 31210",Macon,GA,31210,32.8986106,-83.6914209,kroger,4,3,4,3
"8876 Dallas Acworth Hwy Dallas, GA 30132",Dallas,GA,30132,34.0107831,-84.7521,kroger,4,3,4,3
"455 Nathan Dean Blvd Dallas, GA 30132",Dallas,GA,30132,33.9108875,-84.822827,kroger,4,3,4,3
"8501 Hospital Dr Douglasville, GA 30134",Douglasville,GA,30134,33.749269,-84.7323434,kroger,4,3,4,3
"4815 Ridge Rd Douglasville, GA 30134",Douglasville,GA,30134,33.8190562,-84.8125894,kroger,4,3,4,3
"125 Main Street Market Place Cartersville, GA 30121",Cartersville,GA,30121,34.171471,-84.776812,kroger,4,3,4,3
"3251 Highway 5 Douglasville, GA 30135",Douglasville,GA,30135,33.719279,-84.7661173,kroger,4,3,4,3
"3875 Chapel Hill Rd Douglasville, GA 30135",Douglasville,GA,30135,33.6996627,-84.7186933,kroger,4,3,4,3
"4550 Jonesboro Road Union City, GA 30291",Union City,GA,30291,33.5657545,-84.5367834,kroger,4,3,4,3
"1355 S Park St Carrollton, GA 30117",Carrollton,GA,30117,33.5531758,-85.0751547,kroger,4,3,4,3
"48 Bullsboro Dr Newnan, GA 30263",Newnan,GA,30263,33.3849519,-84.7877185,kroger,4,3,4,3
"1751 Newnan Crossing Blvd E Newnan, GA 30265",Newnan,GA,30265,33.3771758,-84.7517354,kroger,4,3,4,3
"3150 Highway 34 E Newnan, GA 30265",Newnan,GA,30265,33.4094181,-84.6795806,kroger,4,3,4,3
"1017 N Peachtree Pkwy Peachtree City, GA 30269",Peachtree City,GA,30269,33.4392281,-84.5884266,kroger,4,3,4,3
"564 Crosstown Dr Peachtree City, GA 30269",Peachtree City,GA,30269,33.3769347,-84.5645978,kroger,4,3,4,3
"805 Glynn St S Ste 117 Fayetteville, GA 30214",Fayetteville,GA,30214,33.4328996,-84.4586692,kroger,4,3,4,3
"730 N Main St Cedartown, GA 30125",Cedartown,GA,30125,34.0248526,-85.2484462,kroger,4,3,4,3
"203 Commerce Ave Suite A LaGrange, GA 30241",Lagrange,GA,30241,33.0507213,-85.0217752,kroger,4,3,4,3
"136 W Belmont Dr Calhoun, GA 30701",Calhoun,GA,30701,34.4780605,-84.9375148,kroger,4,3,4,3
"1476 Turner McCall Blvd SW Rome, GA 30161",Rome,GA,30161,34.2482846,-85.1629119,kroger,4,3,4,3
"1365 W Walnut Ave Dalton, GA 30720",Dalton,GA,30720,34.7588247,-84.9944607,kroger,4,3,4,3
"1205 N Glenwood Road Dalton, GA 30721",Dalton,GA,30721,34.792096,-84.9637409,kroger,4,3,4,3
"1401 S Gilmer Ave Lanett, AL 36863",Lanett,AL,36863,32.855689,-85.190821,kroger,4,3,4,3
"5928 Zebulon Rd Macon, GA 31210",Macon,GA,31210,32.8779858,-83.7602033,kroger,4,3,4,3
"4650 Forsyth Rd Macon, GA 31210",Macon,GA,31210,32.87326,-83.709775,kroger,4,3,4,3
"4628 Presidential Pkwy Macon, GA 31206",Macon,GA,31206,32.8191186,-83.7109451,kroger,4,3,4,3
"660 North Ave Macon, GA 31211",Macon,GA,31211,32.8507908,-83.6259874,kroger,4,3,4,3
"4321 Hartley Bridge Rd Macon, GA 31216",Macon,GA,31216,32.7450367,-83.7135919,kroger,4,3,4,3
"2460 Enterprise Dr Opelika, AL 36801",Opelika,AL,36801,32.6207323,-85.4116953,kroger,4,3,4,3
"300 N Dean Road Auburn, AL 36830",Auburn,AL,36830,32.6105645,-85.463195,kroger,4,3,4,3
"3094 Watson Blvd Warner Robins, GA 31093",Warner Robins,GA,31093,32.6189172,-83.6953165,kroger,4,3,4,3
"1367 Sam Nunn Blvd Perry, GA 31069",Perry,GA,31069,32.4673377,-83.7414495,kroger,4,3,4,3
"774 GA Highway 96 Bonaire, GA 31005",Bonaire,GA,31005,32.552589,-83.659703,kroger,4,3,4,3
"115 Russell Pkwy Warner Robins, GA 31088",Warner Robins,GA,31088,32.5922284,-83.6255568,kroger,4,3,4,3
"1100 Hillcrest Pkwy Dublin, GA 31021",Dublin,GA,31021,32.5444659,-82.9375341,kroger,4,3,4,3
"1840 Decherd Blvd Decherd, TN 37324",Decherd,TN,37324,35.2047324,-86.0916013,kroger,4,3,4,3
"600 Sea Island Road Suite 23 ST. SIMONS ISLAND, GA 31522",St. Simons Island,GA,31522,31.1836498,-81.3803795,kroger,4,3,4,3
"1606 Memorial Dr Waycross, GA 31501",Waycross,GA,31501,31.2066164,-82.3391679,kroger,4,3,4,3
"5518 S Fletcher Ave Fernandina Beach, FL 32034",Fernandina Beach,FL,32034,30.592608,-81.457812,kroger,4,3,4,3
"4800 First Coast Hwy Fernandina Beach, FL 32034",Fernandina Beach,FL,32034,30.592174,-81.456071,kroger,4,3,4,3
"7925 American Way Groveland, FL 34736",Groveland,FL,34736,28.637873,-81.820496,kroger,4,3,4,3
"241 Hwy 31 SW, Suite K Hartselle, AL 35640",Hartselle,AL,35640,34.4394583,-86.9428297,kroger,4,3,4,3
"8404 Memorial Pkwy Sw Huntsville, AL 35802",Huntsville,AL,35802,34.6566463,-86.5712873,kroger,4,3,4,3
"1101 Beltline Road S.W. Decatur, AL 35601",Decatur,AL,35601,34.5601579,-86.9763541,kroger,4,3,4,3
"4579 Wall Triana Hwy. Madison, AL 35758",Madison,AL,35758,34.7087169,-86.7488221,kroger,4,3,4,3
"2110 Oakwood Ave Nw Huntsville, AL 35810",Huntsville,AL,35810,34.750633,-86.600692,kroger,4,3,4,3
"7090 Highway 72 W Huntsville, AL 35806",Huntsville,AL,35806,34.757011,-86.711877,kroger,4,3,4,3
"6070 Moores Mill Rd Huntsville, AL 35811",Huntsville,AL,35811,34.800504,-86.534893,kroger,4,3,4,3
"1829 Highway 45 N Columbus, MS 39705",Columbus,MS,39705,33.5169277,-88.4364069,kroger,4,3,4,3
"960 W Main St Tupelo, MS 38801",Tupelo,MS,38801,34.2580985,-88.7189806,kroger,4,3,4,3
"930 Barnes Crossing Rd Tupelo, MS 38804",Tupelo,MS,38804,34.3177045,-88.7034397,kroger,4,3,4,3
"1700 N Locust Ave Lawrenceburg, TN 38464",Lawrenceburg,TN,38464,35.2620493,-87.3222967,kroger,4,3,4,3
"301 S Ellington Pkwy Lewisburg, TN 37091",Lewisburg,TN,37091,35.4430686,-86.7729409,kroger,4,3,4,3
"104 Highway 72 W Corinth, MS 38834",Corinth,MS,38834,34.9282297,-88.5243447,kroger,4,3,4,3
"775 Pickwick St Savannah, TN 38372",Savannah,TN,38372,35.2165381,-88.2440677,kroger,4,3,4,3
"1905 N Jackson St Ste 500 Tullahoma, TN 37388",Tullahoma,TN,37388,35.3852079,-86.2359806,kroger,4,3,4,3
"1010 N Main St Shelbyville, TN 37160",Shelbyville,TN,37160,35.497436,-86.4565596,kroger,4,3,4,3
"2340 Highway 15 N Laurel, MS 39440",Laurel,MS,39440,31.7193413,-89.1505767,kroger,4,3,4,3
"5319 Mount View Rd Nashville-Davidson, TN 37013",Nashville-Davidson,TN,37013,36.049658,-86.647044,kroger,4,3,4,3
"2284 Murfreesboro Pike Nashville, TN 37217",Nashville,TN,37217,36.0885604,-86.6472921,kroger,4,3,4,3
"5771 Nolensville Pike Nashville, TN 37211",Nashville,TN,37211,36.0464067,-86.7152077,kroger,4,3,4,3
"5145 Murfreesboro Rd La Vergne, TN 37086",La Vergne,TN,37086,36.021983,-86.5761689,kroger,4,3,4,3
"6690 Nolensville Rd Brentwood, TN 37027",Brentwood,TN,37027,36.000391,-86.691218,kroger,4,3,4,3
"5713 Edmondson Pike Nashville, TN 37211",Nashville,TN,37211,36.0391566,-86.7454001,kroger,4,3,4,3
"61 E Thompson Ln Nashville, TN 37211",Nashville,TN,37211,36.10982,-86.725133,kroger,4,3,4,3
"463 Sam Ridley Pkwy W Smyrna, TN 37167",Smyrna,TN,37167,35.9831416,-86.5508438,kroger,4,3,4,3
"210 Franklin Rd. Suite 100 Brentwood, TN 37027",Brentwood,TN,37027,36.0316958,-86.7874982,kroger,4,3,4,3
"143 Mcgavock Pike Nashville, TN 37214",Nashville,TN,37214,36.1706942,-86.6787276,kroger,4,3,4,3
"2694 Fessey Court Nashville, TN 37204",Nashville,TN,37204,36.12117,-86.7682345,kroger,4,3,4,3
"2615 Franklin Pike Nashville, TN 37204",Nashville,TN,37204,36.1198785,-86.7774787,kroger,4,3,4,3
"5544 Old Hickory Blvd Hermitage, TN 37076",Hermitage,TN,37076,36.1815902,-86.6050795,kroger,4,3,4,3
"2201 21st Ave. S Nashville, TN 37212",Nashville,TN,37212,36.130199,-86.802569,kroger,4,3,4,3
"2131 Abbott Martin Rd Nashville, TN 37215",Nashville,TN,37215,36.105975,-86.818705,kroger,4,3,4,3
"401 S Mount Juliet Rd Ste 200 Mount Juliet, TN 37122",Mount Juliet,TN,37122,36.1648406,-86.5119615,kroger,4,3,4,3
"711 Gallatin Ave Nashville, TN 37206",Nashville,TN,37206,36.1843151,-86.74704,kroger,4,3,4,3
"4400 Lebanon Pike Hermitage, TN 37076",Hermitage,TN,37076,36.2165504,-86.6040025,kroger,4,3,4,3
"2020 Mallory Ln Franklin, TN 37067",Franklin,TN,37067,35.9508457,-86.8166931,kroger,4,3,4,3
"3410 Gallatin Pike Nashville, TN 37216",Nashville,TN,37216,36.210179,-86.7315587,kroger,4,3,4,3
"800 Monroe St Nashville, TN 37208",Nashville,TN,37208,36.175869,-86.794258,kroger,4,3,4,3
"4560 Harding Pike Nashville, TN 37205",Nashville,TN,37205,36.1239413,-86.8505755,kroger,4,3,4,3
"5705 Charlotte Pike Nashville, TN 37209",Nashville,TN,37209,36.1484077,-86.860767,kroger,4,3,4,3
"1203 Murfreesboro Road Franklin, TN 37064",Franklin,TN,37064,35.917724,-86.831732,kroger,4,3,4,3
"4120 N Mount Juliet Rd Mount Juliet, TN 37122",Mount Juliet,TN,37122,36.2293536,-86.5164023,kroger,4,3,4,3
"200 Gallatin Pike S Madison, TN 37115",Madison,TN,37115,36.2618285,-86.7140814,kroger,4,3,4,3
"3930 Clarksville Pike Nashville, TN 37218",Nashville,TN,37218,36.2097851,-86.8375039,kroger,4,3,4,3
"7087 Highway 70 S Nashville, TN 37221",Nashville,TN,37221,36.073104,-86.919554,kroger,4,3,4,3
"595 Hillsboro Rd Ste 305 Franklin, TN 37064",Franklin,TN,37064,35.9329581,-86.8802121,kroger,4,3,4,3
"4432 Veterans Pkwy Murfreesboro, TN 37128",Murfreesboro,TN,37128,35.844714,-86.491627,kroger,4,3,4,3
"3054 Columbia Ave Franklin, TN 37064",Franklin,TN,37064,35.89369,-86.880956,kroger,4,3,4,3
"8141 State Highway 100 Nashville, TN 37221",Nashville,TN,37221,36.0433838,-86.9565388,kroger,4,3,4,3
"411 Whitman Road Franklin, TN 37064",Franklin,TN,37064,35.9289693,-86.9183785,kroger,4,3,4,3
"1776 W Northfield Blvd Murfreesboro, TN 37129",Murfreesboro,TN,37129,35.8714147,-86.4155548,kroger,4,3,4,3
"170 E Main St Suite 300 Hendersonville, TN 37075",Hendersonville,TN,37075,36.307642,-86.607067,kroger,4,3,4,3
"237 E. Main St. Hendersonville, TN 37075",Hendersonville,TN,37075,36.307923,-86.600332,kroger,4,3,4,3
"2449 Old Fort Pkwy Murfreesboro, TN 37128",Murfreesboro,TN,37128,35.843384,-86.44165,kroger,4,3,4,3
"2325 Memorial Blvd Murfreesboro, TN 37129",Murfreesboro,TN,37129,35.8865043,-86.3845199,kroger,4,3,4,3
"123 G Northcreek Blvd. Goodlettsville, TN 37072",Goodlettsville,TN,37072,36.3264389,-86.6987,kroger,4,3,4,3
"123 Northcreek Blvd Goodlettsville, TN 37072",Goodlettsville,TN,37072,36.326508,-86.698693,kroger,4,3,4,3
"1010 Glenbrook Way Hendersonville, TN 37075",Hendersonville,TN,37075,36.3335003,-86.6211301,kroger,4,3,4,3
"2050 Lascassas Pike Murfreesboro, TN 37130",Murfreesboro,TN,37130,35.8728633,-86.3522028,kroger,4,3,4,3
"1418 W Main St Ste A Lebanon, TN 37087",Lebanon,TN,37087,36.2144749,-86.3308348,kroger,4,3,4,3
"2011 Nashville Pike Gallatin, TN 37066",Gallatin,TN,37066,36.3434076,-86.5260974,kroger,4,3,4,3
"2946 S Church St Murfreesboro, TN 37127",Murfreesboro,TN,37127,35.7901152,-86.4022656,kroger,4,3,4,3
"4726 Traders Way Thompsons Station, TN 37179",Thompsons Station,TN,37179,35.7847981,-86.9155773,kroger,4,3,4,3
"845 Nashville Pike Gallatin, TN 37066",Gallatin,TN,37066,36.3780958,-86.4653698,kroger,4,3,4,3
"4900 Port Royal Rd Spring Hill, TN 37174",Spring Hill,TN,37174,35.7413483,-86.8917805,kroger,4,3,4,3
"510 Highway 76 White House, TN 37188",White House,TN,37188,36.4704109,-86.6660059,kroger,4,3,4,3
"2600 Memorial Blvd Springfield, TN 37172",Springfield,TN,37172,36.4886529,-86.8632737,kroger,4,3,4,3
"845 Nashville Hwy Columbia, TN 38401",Columbia,TN,38401,35.6305349,-87.0274778,kroger,4,3,4,3
"1202 S James Campbell Blvd Columbia, TN 38401",Columbia,TN,38401,35.6013785,-87.0620471,kroger,4,3,4,3
"143 Henslee Dr Dickson, TN 37055",Dickson,TN,37055,36.0772908,-87.3715617,kroger,4,3,4,3
"1489 Madison St Clarksville, TN 37040",Clarksville,TN,37040,36.5212082,-87.3299472,kroger,4,3,4,3
"110 Dover Crossing Rd Clarksville, TN 37042",Clarksville,TN,37042,36.5531243,-87.3982295,kroger,4,3,4,3
"2100 Lowes Dr Clarksville, TN 37040",Clarksville,TN,37040,36.5755649,-87.3067488,kroger,4,3,4,3
"445 S Jefferson Ave Cookeville, TN 38501",Cookeville,TN,38501,36.1539568,-85.5019574,kroger,4,3,4,3
"1410 Sparta St Mcminnville, TN 37110",Mcminnville,TN,37110,35.6933672,-85.7474595,kroger,4,3,4,3
"1112 W. 9th St. Russellville, KY 42276",Russellville,KY,42276,36.8321292,-86.9058909,kroger,4,3,4,3
"1213 Skyline Dr Hopkinsville, KY 42240",Hopkinsville,KY,42240,36.8403472,-87.4764941,kroger,4,3,4,3
"500 Us Hwy 62 West Princeton, KY 42445",Princeton,KY,42445,37.1128555,-87.9038057,kroger,4,3,4,3
"U.S. Hwy. 62 E Powderly, KY 42367",Powderly,KY,42367,37.2329598,-87.1609475,kroger,4,3,4,3
"2945 Scottsville Rd Bowling Green, KY 42104",Bowling Green,KY,42104,36.9432576,-86.4254048,kroger,4,3,4,3
"711 Campbell Ln Bowling Green, KY 42104",Bowling Green,KY,42104,36.9597657,-86.4666655,kroger,4,3,4,3
"350 West Us 31 Bypass Bowling Green, KY 42101",Bowling Green,KY,42101,36.9965152,-86.4246741,kroger,4,3,4,3
"265 Highland Sq Crossville, TN 38555",Crossville,TN,38555,35.9582978,-85.0458226,kroger,4,3,4,3
"374 N L. Rogers Wells Blvd. Glasgow, KY 42141",Glasgow,KY,42141,37.0075345,-85.925389,kroger,4,3,4,3
"1059 Mineral Wells Ave Paris, TN 38242",Paris,TN,38242,36.2876885,-88.3081471,kroger,4,3,4,3
"5024 South First St. Milan, TN 38358",Milan,TN,38358,35.91084,-88.7515516,kroger,4,3,4,3
"808 N 12Th St Murray, KY 42071",Murray,KY,42071,36.6250487,-88.3128289,kroger,4,3,4,3
"1820 Roane State Hwy Harriman, TN 37748",Harriman,TN,37748,35.8921879,-84.5507907,kroger,4,3,4,3
"126 Stonehenge Dr Crossville, TN 38558",Crossville,TN,38558,36.008639,-84.885558,kroger,4,3,4,3
"11927 Kingston Pike Farragut, TN 37934",Farragut,TN,37934,35.872187,-84.181542,kroger,4,3,4,3
"189 Brooklawn St Farragut, TN 37934",Farragut,TN,37934,35.8801613,-84.1571118,kroger,4,3,4,3
"601 N Campbell Station Rd Knoxville, TN 37934",Knoxville,TN,37934,35.893727,-84.173998,kroger,4,3,4,3
"10701 Kingston Pike Knoxville, TN 37934",Knoxville,TN,37934,35.895757,-84.138699,kroger,4,3,4,3
"9225 Kingston Pike Knoxville, TN 37922",Knoxville,TN,37922,35.9135532,-84.0893748,kroger,4,3,4,3
"8950 Kingston Pike Knoxville, TN 37923",Knoxville,TN,37923,35.912582,-84.081079,kroger,4,3,4,3
"9200 Middlebrook Pike Knoxville, TN 37931",Knoxville,TN,37931,35.941688,-84.095468,kroger,4,3,4,3
"9161 Middlebrook Pike Knoxville, TN 37923",Knoxville,TN,37923,35.9428005,-84.0934177,kroger,4,3,4,3
"1550 Oak Ridge Turnpike Oak Ridge, TN 37830",Oak Ridge,TN,37830,36.012933,-84.268219,kroger,4,3,4,3
"1299 Oak Ridge Tpke Oak Ridge, TN 37830",Oak Ridge,TN,37830,36.0144,-84.25434,kroger,4,3,4,3
"7523 Kingston Pike Knoxville, TN 37919",Knoxville,TN,37919,35.92921,-84.035697,kroger,4,3,4,3
"7810 Oak Ridge Hwy Knoxville, TN 37931",Knoxville,TN,37931,35.97972,-84.115463,kroger,4,3,4,3
"245 S Main St Clinton, TN 37716",Clinton,TN,37716,36.096689,-84.135869,kroger,4,3,4,3
"2710 Maynardville Hwy Maynardville, TN 37807",Maynardville,TN,37807,36.226102,-83.843797,kroger,4,3,4,3
"7425 Tazewell Pike NE Corryton, TN 37721",Corryton,TN,37721,36.120437,-83.854157,kroger,4,3,4,3
"4423 Asheville Hwy NE Knoxville, TN 37914",Knoxville,TN,37914,36.005189,-83.864345,kroger,4,3,4,3
"4414 Asheville Hwy Knoxville, TN 37914",Knoxville,TN,37914,36.0039787,-83.8646774,kroger,4,3,4,3
"6920 Maynardville Pike NE Knoxville, TN 37918",Knoxville,TN,37918,36.073002,-83.926974,kroger,4,3,4,3
"5006 N Broadway NE Knoxville, TN 37918",Knoxville,TN,37918,36.030246,-83.92834,kroger,4,3,4,3
"5201 N Broadway St Knoxville, TN 37918",Knoxville,TN,37918,36.0328769,-83.9316503,kroger,4,3,4,3
"2400 N Broadway St Knoxville, TN 37917",Knoxville,TN,37917,35.994981,-83.920873,kroger,4,3,4,3
"2217 N Broadway St Knoxville, TN 37917",Knoxville,TN,37917,35.9927756,-83.9217285,kroger,4,3,4,3
"4001 Chapman Hwy Knoxville, TN 37920",Knoxville,TN,37920,35.937165,-83.908523,kroger,4,3,4,3
"4409 Chapman Hwy Knoxville, TN 37920",Knoxville,TN,37920,35.9327173,-83.9064235,kroger,4,3,4,3
"1725 Cumberland Ave SW Knoxville, TN 37916",Knoxville,TN,37916,35.956376,-83.933885,kroger,4,3,4,3
"234 E. Emory Road Powell, TN 37849",Powell,TN,37849,36.0444656,-84.003608,kroger,4,3,4,3
"5320 Clinton Hwy Knoxville, TN 37912",Knoxville,TN,37912,36.004341,-83.980369,kroger,4,3,4,3
"4423 Western Ave NW Knoxville, TN 37921",Knoxville,TN,37921,35.973024,-83.986449,kroger,4,3,4,3
"2151 N Charles G Seivers Blvd Clinton, TN 37716",Clinton,TN,37716,36.161331,-84.090722,kroger,4,3,4,3
"6702 Clinton Hwy Knoxville, TN 37912",Knoxville,TN,37912,36.008673,-84.023638,kroger,4,3,4,3
"4918 Kingston Pike Knoxville, TN 37919",Knoxville,TN,37919,35.9398422,-83.9846994,kroger,4,3,4,3
"7320 Clinton Hwy Powell, TN 37849",Powell,TN,37849,36.016744,-84.047335,kroger,4,3,4,3
"121 Northshore Dr NW Knoxville, TN 37919",Knoxville,TN,37919,35.933706,-84.003251,kroger,4,3,4,3
"1187 N. Highway 27 Whitley City, KY 42653",Whitley City,KY,42653,36.7392776,-84.4739834,kroger,4,3,4,3
"1019 Cumberland Falls Hwy Corbin, KY 40701",Corbin,KY,40701,36.9282786,-84.1050693,kroger,4,3,4,3
"14889 N Us Highway 25 E Corbin, KY 40701",Corbin,KY,40701,36.9592084,-84.0752841,kroger,4,3,4,3
"1732 Highway 192 W London, KY 40741",London,KY,40741,37.1068358,-84.0902733,kroger,4,3,4,3
"1805 N Main St London, KY 40741",London,KY,40741,37.1387268,-84.1001766,kroger,4,3,4,3
"11630 Highway 51 S Atoka, TN 38004",Atoka,TN,38004,35.4407111,-89.7906539,kroger,4,3,4,3
"8039 US Highway 51 N Millington, TN 38053",Millington,TN,38053,35.3465066,-89.9069324,kroger,4,3,4,3
"11635 Highway 70 Arlington, TN 38002",Arlington,TN,38002,35.2928907,-89.6739317,kroger,4,3,4,3
"7615 Us Highway 70 Bartlett, TN 38133",Bartlett,TN,38133,35.229648,-89.8078813,kroger,4,3,4,3
"3860 Austin Peay Hwy Memphis, TN 38128",Memphis,TN,38128,35.2311122,-89.8953313,kroger,4,3,4,3
"9025 Us Hwy 64 Lakeland, TN 38002",Lakeland,TN,38002,35.2026087,-89.7620749,kroger,4,3,4,3
"2942 Kirby Whitten Rd Bartlett, TN 38134",Bartlett,TN,38134,35.2067231,-89.8380774,kroger,4,3,4,3
"5995 Stage Rd Bartlett, TN 38134",Bartlett,TN,38134,35.2023584,-89.8628405,kroger,4,3,4,3
"1675 N Germantown Pkwy Cordova, TN 38016",Cordova,TN,38016,35.170857,-89.7953846,kroger,4,3,4,3
"2632 Frayser Blvd Memphis, TN 38127",Memphis,TN,38127,35.2226893,-89.9767774,kroger,4,3,4,3
"1230 N Houston Levee Rd Cordova, TN 38018",Cordova,TN,38018,35.158957,-89.7256573,kroger,4,3,4,3
"676 N Germantown Pkwy Cordova, TN 38018",Cordova,TN,38018,35.1434069,-89.7928789,kroger,4,3,4,3
"7265 Highway 64 Oakland, TN 38060",Oakland,TN,38060,35.2311387,-89.514115,kroger,4,3,4,3
"4264 Summer Ave Memphis, TN 38122",Memphis,TN,38122,35.1504701,-89.9184469,kroger,4,3,4,3
"540 S Mendenhall Rd Memphis, TN 38117",Memphis,TN,38117,35.1164026,-89.8942599,kroger,4,3,4,3
"3444 Plaza Ave. Memphis, TN 38111",Memphis,TN,38111,35.130589,-89.947924,kroger,4,3,4,3
"6660 Poplar Ave Memphis, TN 38138",Memphis,TN,38138,35.1004283,-89.8410286,kroger,4,3,4,3
"799 Truse Pkwy Memphis, TN 38117",Memphis,TN,38117,35.1098894,-89.8941685,kroger,4,3,4,3
"7735 Farmington Blvd Germantown, TN 38138",Germantown,TN,38138,35.09418,-89.80549,kroger,4,3,4,3
"1366 Poplar Ave Memphis, TN 38104",Memphis,TN,38104,35.145316,-90.0147766,kroger,4,3,4,3
"1759 Union Avenue Memphis, TN 38104",Memphis,TN,38104,35.1352501,-90.0036334,kroger,4,3,4,3
"2835 Kirby Pkwy Memphis, TN 38119",Memphis,TN,38119,35.0717736,-89.8444667,kroger,4,3,4,3
"9423 Poplar Ave (Hwy 72) Germantown, TN 38138",Germantown,TN,38138,35.062361,-89.748953,kroger,4,3,4,3
"7942 Winchester Rd Memphis, TN 38125",Memphis,TN,38125,35.0500753,-89.7980517,kroger,4,3,4,3
"3685 S Houston Levee Rd Collierville, TN 38017",Collierville,TN,38017,35.0479573,-89.7358832,kroger,4,3,4,3
"240 New Byhalia Rd Collierville, TN 38017",Collierville,TN,38017,35.0475701,-89.6870714,kroger,4,3,4,3
"4770 Riverdale Rd Memphis, TN 38141",Memphis,TN,38141,35.0184403,-89.8290087,kroger,4,3,4,3
"300 W Service Rd West Memphis, AR 72301",West Memphis,AR,72301,35.167868,-90.191514,kroger,4,3,4,3
"1212 E Shelby Dr Memphis, TN 38116",Memphis,TN,38116,35.0226866,-90.0234125,kroger,4,3,4,3
"7427 Goodman Rd Olive Branch, MS 38654",Olive Branch,MS,38654,34.9602294,-89.8577036,kroger,4,3,4,3
"465 Stateline Rd W Southaven, MS 38671",Southaven,MS,38671,34.99027,-89.9974562,kroger,4,3,4,3
"3095 Goodman Rd E Southaven, MS 38672",Southaven,MS,38672,34.960895,-89.93502,kroger,4,3,4,3
"7251 Interstate Dr Horn Lake, MS 38637",Horn Lake,MS,38637,34.9643289,-90.0056652,kroger,4,3,4,3
"3926 Goodman Rd W Horn Lake, MS 38637",Horn Lake,MS,38637,34.9644748,-90.0594804,kroger,4,3,4,3
"3950 Goodman Rd W Horn Lake, MS 38637",Horn Lake,MS,38637,34.962665,-90.060067,kroger,4,3,4,3
"400 W Moultrie Dr Blytheville, AR 72315",Blytheville,AR,72315,35.9371785,-89.9069518,kroger,4,3,4,3
"2380 Mount Pleasant Rd. Hernando, MS 38632",Hernando,MS,38632,34.8264396,-89.9818101,kroger,4,3,4,3
"2525 Lake Rd Dyersburg, TN 38024",Dyersburg,TN,38024,36.0632241,-89.3972485,kroger,4,3,4,3
"2013 University Ave Oxford, MS 38655",Oxford,MS,38655,34.3635217,-89.5036823,kroger,4,3,4,3
"144 University Plaza Drive Martin, TN 38237",Martin,TN,38237,36.3479268,-88.8783007,kroger,4,3,4,3
"41 Stonebrook Place Jackson, TN 38305",Jackson,TN,38305,35.6884295,-88.8582965,kroger,4,3,4,3
"35 W University Pkwy Jackson, TN 38305",Jackson,TN,38305,35.697373,-88.831186,kroger,4,3,4,3
"941 N Parkway Jackson, TN 38305",Jackson,TN,38305,35.6520378,-88.8273288,kroger,4,3,4,3
"1102 South Main St. Sikeston, MO 63801",Sikeston,MO,63801,36.8788946,-89.5798749,kroger,4,3,4,3
"1107 Paris Rd. Mayfield, KY 42066",Mayfield,KY,42066,36.7244986,-88.6295224,kroger,4,3,4,3
"181 S Highway 127 Russell Springs, KY 42642",Russell Springs,KY,42642,37.0636421,-85.0716963,kroger,4,3,4,3
"50 Stonegate Center Somerset, KY 42501",Somerset,KY,42501,37.05772,-84.626986,kroger,4,3,4,3
"181 S Highway 27 Somerset, KY 42501",Somerset,KY,42501,37.0908091,-84.619284,kroger,4,3,4,3
"110 Keating Rd Batesville, MS 38606",Batesville,MS,38606,34.3111181,-89.9282841,kroger,4,3,4,3
"602 N Davis Ave Cleveland, MS 38732",Cleveland,MS,38732,33.7523782,-90.7138832,kroger,4,3,4,3
"1778 Highway 1 S Greenville, MS 38701",Greenville,MS,38701,33.3698221,-91.0379707,kroger,4,3,4,3
"826 Highway 12 W Starkville, MS 39759",Starkville,MS,39759,33.449593,-88.84256,kroger,4,3,4,3
"115 Colony Crossing Way Madison, MS 39110",Madison,MS,39110,32.4748841,-90.1419176,kroger,4,3,4,3
"1070 Highway 51 Madison, MS 39110",Madison,MS,39110,32.4637475,-90.1081963,kroger,4,3,4,3
"7045 Old Canton Rd Ridgeland, MS 39157",Ridgeland,MS,39157,32.4159654,-90.1069897,kroger,4,3,4,3
"4910 I 55 N Jackson, MS 39211",Jackson,MS,39211,32.3638105,-90.1478631,kroger,4,3,4,3
"1070 Spillway Cir Brandon, MS 39047",Brandon,MS,39047,32.38348,-90.0392812,kroger,4,3,4,3
"107 Highway 80 E Clinton, MS 39056",Clinton,MS,39056,32.3348431,-90.3253719,kroger,4,3,4,3
"462 Springridge Rd Clinton, MS 39056",Clinton,MS,39056,32.329869,-90.326571,kroger,4,3,4,3
"110 Promenade Blvd Flowood, MS 39232",Flowood,MS,39232,32.3423425,-90.0637235,kroger,4,3,4,3
"143 Albertson Drive Flowood, MS 39232",Flowood,MS,39232,32.3556064,-90.0138273,kroger,4,3,4,3
"201 Lonnie T. Jenkins Drive Pearl, MS 39208",Pearl,MS,39208,32.284337,-90.11687,kroger,4,3,4,3
"1811 W Government St Brandon, MS 39042",Brandon,MS,39042,32.2853568,-90.0375404,kroger,4,3,4,3
"1167 Highway 49 S Richland, MS 39218",Richland,MS,39218,32.2163394,-90.1553684,kroger,4,3,4,3
"6745 S Siwell Rd Byram, MS 39272",Byram,MS,39272,32.2041633,-90.297341,kroger,4,3,4,3
"3408 Pemberton Square Blvd Vicksburg, MS 39180",Vicksburg,MS,39180,32.3149988,-90.8820346,kroger,4,3,4,3
"102 W. John Rowan Blvd Bardstown, KY 40004",Bardstown,KY,40004,37.8287354,-85.4644758,kroger,4,3,4,3
"234 Eastbrooke Pkwy Mount Washington, KY 40047",Mount Washington,KY,40047,38.0566759,-85.5369129,kroger,4,3,4,3
"311 Boone Station Rd Shelbyville, KY 40065",Shelbyville,KY,40065,38.2157434,-85.2063739,kroger,4,3,4,3
"6900 Bardstown Rd Louisville, KY 40291",Louisville,KY,40291,38.146193,-85.5879364,kroger,4,3,4,3
"12611 Taylorsville Rd Ste 102 Louisville, KY 40299",Louisville,KY,40299,38.1887948,-85.5190563,kroger,4,3,4,3
"1300 Anderson Crossing Dr Lawrenceburg, KY 40342",Lawrenceburg,KY,40342,38.0170723,-84.9102055,kroger,4,3,4,3
"185 Adam Shepherd Pkwy Shepherdsville, KY 40165",Shepherdsville,KY,40165,37.9917289,-85.7107807,kroger,4,3,4,3
"5001 Mud Ln Louisville, KY 40229",Louisville,KY,40229,38.0892166,-85.6706097,kroger,4,3,4,3
"705 E Main St Lebanon, KY 40033",Lebanon,KY,40033,37.5768044,-85.2340663,kroger,4,3,4,3
"12501 Shelbyville Rd Middletown, KY 40243",Middletown,KY,40243,38.245021,-85.520782,kroger,4,3,4,3
"4501 Outer Loop Louisville, KY 40219",Louisville,KY,40219,38.1399491,-85.6795056,kroger,4,3,4,3
"9080 Taylorsville Rd Louisville, KY 40299",Louisville,KY,40299,38.212642,-85.591978,kroger,4,3,4,3
"9812 Linn Station Rd Louisville, KY 40223",Louisville,KY,40223,38.2259742,-85.5761691,kroger,4,3,4,3
"3039 Breckenridge Ln Louisville, KY 40220",Louisville,KY,40220,38.217455,-85.626244,kroger,4,3,4,3
"3616 Buechel Bypass Louisville, KY 40218",Louisville,KY,40218,38.1981914,-85.6636624,kroger,4,3,4,3
"844 S College St Harrodsburg, KY 40330",Harrodsburg,KY,40330,37.7461291,-84.8438973,kroger,4,3,4,3
"12450 Lagrange Rd. Louisville, KY 40245",Louisville,KY,40245,38.290685,-85.508474,kroger,4,3,4,3
"1309 Us 127 S Suite H Frankfort, KY 40601",Frankfort,KY,40601,38.1654418,-84.8953392,kroger,4,3,4,3
"4009 Poplar Level Rd Louisville, KY 40213",Louisville,KY,40213,38.2020235,-85.7077707,kroger,4,3,4,3
"9501 Westport Rd Louisville, KY 40241",Louisville,KY,40241,38.2883838,-85.5745714,kroger,4,3,4,3
"2440 Bardstown Rd Louisville, KY 40205",Louisville,KY,40205,38.22326,-85.68745,kroger,4,3,4,3
"291 N Hubbards Ln Ste 130 Saint Matthews, KY 40207",Saint Matthews,KY,40207,38.2584937,-85.6367782,kroger,4,3,4,3
"5533 New Cut Rd Louisville, KY 40214",Louisville,KY,40214,38.1445097,-85.7734632,kroger,4,3,4,3
"9440 Brownsboro Rd Louisville, KY 40241",Louisville,KY,40241,38.3053948,-85.5751607,kroger,4,3,4,3
"2219 Holiday Manor Court Louisville, KY 40222",Louisville,KY,40222,38.2839231,-85.6306183,kroger,4,3,4,3
"1265 Goss Ave Louisville, KY 40217",Louisville,KY,40217,38.226478,-85.730608,kroger,4,3,4,3
"4211 S 3Rd St Louisville, KY 40214",Louisville,KY,40214,38.1949668,-85.7645751,kroger,4,3,4,3
"3165 S 2Nd St Louisville, KY 40208",Louisville,KY,40208,38.2025911,-85.7613734,kroger,4,3,4,3
"2200 Brownsboro Rd Louisville, KY 40206",Louisville,KY,40206,38.257894,-85.7042945,kroger,4,3,4,3
"3040 Dolphin Dr Elizabethtown, KY 42701",Elizabethtown,KY,42701,37.711977,-85.836152,kroger,4,3,4,3
"300 Brighton Park Blvd Frankfort, KY 40601",Frankfort,KY,40601,38.1991665,-84.8263297,kroger,4,3,4,3
"2034 S Highway 53 La Grange, KY 40031",La Grange,KY,40031,38.393055,-85.3674363,kroger,4,3,4,3
"10645 Dixie Hwy Louisville, KY 40272",Louisville,KY,40272,38.098672,-85.8696973,kroger,4,3,4,3
"4915A Dixie Highway Louisville, KY 40216",Louisville,KY,40216,38.167742,-85.826118,kroger,4,3,4,3
"212 Kroger Way Versailles, KY 40383",Versailles,KY,40383,38.052959,-84.711332,kroger,4,3,4,3
"5929 Timber Ridge Dr Prospect, KY 40059",Prospect,KY,40059,38.3401873,-85.6213966,kroger,4,3,4,3
"111 Towne Dr Elizabethtown, KY 42701",Elizabethtown,KY,42701,37.734737,-85.888467,kroger,4,3,4,3
"7509 Terry Road Louisville, KY 40258",Louisville,KY,40258,38.1425588,-85.8702299,kroger,4,3,4,3
"2710 W Broadway Louisville-Jefferson County, KY 40211",Louisville-Jefferson County,KY,40211,38.2485162,-85.7969256,kroger,4,3,4,3
"200 Skywatch Dr Danville, KY 40422",Danville,KY,40422,37.6182779,-84.782804,kroger,4,3,4,3
"1027 Jeffersonville Commons Drive Jeffersonville, IN 47130",Jeffersonville,IN,47130,38.335005,-85.712037,kroger,4,3,4,3
"520 N 35Th St Louisville, KY 40212",Louisville,KY,40212,38.2703515,-85.805585,kroger,4,3,4,3
"305 E Lewis And Clark Pkwy Clarksville, IN 47129",Clarksville,IN,47129,38.310988,-85.7704604,kroger,4,3,4,3
"2864 Charlestown Rd New Albany, IN 47150",New Albany,IN,47150,38.3319483,-85.7980611,kroger,4,3,4,3
"170 Bellerive Blvd Nicholasville, KY 40356",Nicholasville,KY,40356,37.984358,-84.589651,kroger,4,3,4,3
"200 New Albany Plz New Albany, IN 47150",New Albany,IN,47150,38.3052496,-85.8379847,kroger,4,3,4,3
"995 S Main St Nicholasville, KY 40356",Nicholasville,KY,40356,37.8656145,-84.5810068,kroger,4,3,4,3
"3400 Grant Line Rd New Albany, IN 47150",New Albany,IN,47150,38.3289618,-85.8179227,kroger,4,3,4,3
"399 Campbellsville Byp Ste 100 Campbellsville, KY 42718",Campbellsville,KY,42718,37.3413652,-85.3655237,kroger,4,3,4,3
"7605 Highway 311 Sellersburg, IN 47172",Sellersburg,IN,47172,38.382966,-85.769608,kroger,4,3,4,3
"815 Highlander Point Dr Floyds Knobs, IN 47119",Floyds Knobs,IN,47119,38.317823,-85.899495,kroger,4,3,4,3
"568 Bypass Rd Brandenburg, KY 40108",Brandenburg,KY,40108,37.9821953,-86.1628622,kroger,4,3,4,3
"9501 County Road 403 Charlestown, IN 47111",Charlestown,IN,47111,38.453458,-85.673259,kroger,4,3,4,3
"2549 Us Highway 227 Carrollton, KY 41008",Carrollton,KY,41008,38.6576786,-85.1312397,kroger,4,3,4,3
"106 Marketplace Circle Georgetown, KY 40324",Georgetown,KY,40324,38.186341,-84.56836,kroger,4,3,4,3
"525 E Clifty Dr Madison, IN 47250",Madison,IN,47250,38.7815374,-85.3789826,kroger,4,3,4,3
"400 N Gardner St Scottsburg, IN 47170",Scottsburg,IN,47170,38.691315,-85.78099,kroger,4,3,4,3
"805 S Main St Salem, IN 47167",Salem,IN,47167,38.5966047,-86.1019856,kroger,4,3,4,3
"601 S Main St Salem, IN 47167",Salem,IN,47167,38.599165,-86.101975,kroger,4,3,4,3
"389 Old Capital Plaza NW Corydon, IN 47112",Corydon,IN,47112,38.22704,-86.13486,kroger,4,3,4,3
"200 E Brannon Rd Nicholasville, KY 40356",Nicholasville,KY,40356,37.9545949,-84.5362087,kroger,4,3,4,3
"3650 Boston Rd Lexington, KY 40514",Lexington,KY,40514,37.9790016,-84.5501227,kroger,4,3,4,3
"3175 Beaumont Centre Cir Lexington, KY 40513",Lexington,KY,40513,38.0228609,-84.5592469,kroger,4,3,4,3
"1808 Alexandria Dr Lexington, KY 40504",Lexington,KY,40504,38.0375535,-84.550596,kroger,4,3,4,3
"4101 Tates Creek Centre Drive Lexington, KY 40517",Lexington,KY,40517,37.9705806,-84.4986704,kroger,4,3,4,3
"150 W Lowry Ln Ste 190 Lexington, KY 40503",Lexington,KY,40503,38.0064996,-84.5217367,kroger,4,3,4,3
"4750 Hartland Pkwy Lexington, KY 40515",Lexington,KY,40515,37.9620466,-84.4796292,kroger,4,3,4,3
"300 Alumni Drive Lexington, KY 40503",Lexington,KY,40503,38.0160155,-84.5085904,kroger,4,3,4,3
"1060 Chinoe Rd Ste 190 Lexington, KY 40502",Lexington,KY,40502,37.9968605,-84.4786723,kroger,4,3,4,3
"1600 Leestown Rd Lexington, KY 40511",Lexington,KY,40511,38.0653327,-84.5271941,kroger,4,3,4,3
"704 Euclid Ave. Lexington, KY 40502",Lexington,KY,40502,38.0306743,-84.4929085,kroger,4,3,4,3
"3101 Richmond Rd Lexington, KY 40509",Lexington,KY,40509,38.003241,-84.444936,kroger,4,3,4,3
"1650 Bryan Station Rd Lexington, KY 40505",Lexington,KY,40505,38.05921,-84.461204,kroger,4,3,4,3
"890 Richmond Plaza Richmond, KY 40475",Richmond,KY,40475,37.7313245,-84.2739544,kroger,4,3,4,3
"101 Fitness Path Georgetown, KY 40324",Georgetown,KY,40324,38.2313038,-84.5331327,kroger,4,3,4,3
"119 Center St Berea, KY 40403",Berea,KY,40403,37.5733123,-84.2873028,kroger,4,3,4,3
"2590 Richmond St Mt Vernon, KY 40456",Mt Vernon,KY,40456,37.3898432,-84.3316294,kroger,4,3,4,3
"2325 N State Highway 3 North Vernon, IN 47265",North Vernon,IN,47265,39.019541,-85.642333,kroger,4,3,4,3
"1418 N. Main St. Williamstown, KY 41097",Williamstown,KY,41097,38.6627766,-84.5749233,kroger,4,3,4,3
"1418 N. Main St. Williamstown, KY 41097",Williamstown,KY,41097,38.662798,-84.574788,kroger,4,3,4,3
"663 E State Road 64 English, IN 47118",English,IN,47118,38.352024,-86.450095,kroger,4,3,4,3
"8276 W State Road 56 West Baden Springs, IN 47469",West Baden Springs,IN,47469,38.562981,-86.614369,kroger,4,3,4,3
"155 East 30th St Jasper, IN 47546",Jasper,IN,47546,38.4147607,-86.9369064,kroger,4,3,4,3
"2308 E 4Th St Owensboro, KY 42303",Owensboro,KY,42303,37.7786262,-87.0805567,kroger,4,3,4,3
"1240 West Main Street Mitchell, IN 47446",Mitchell,IN,47446,38.73129,-86.4819379,kroger,4,3,4,3
"2630 Frederica St Owensboro, KY 42301",Owensboro,KY,42301,37.7502708,-87.1138636,kroger,4,3,4,3
"201 High St Shoals, IN 47581",Shoals,IN,47581,38.665043,-86.792127,kroger,4,3,4,3
"1670 Starlite Dr Owensboro, KY 42301",Owensboro,KY,42301,37.7543167,-87.1507249,kroger,4,3,4,3
"7844 W. State Route 66 Newburgh, IN 47630",Newburgh,IN,47630,37.9779886,-87.3935213,kroger,4,3,4,3
"730 S. Green River Rd. Evansville, IN 47715",Evansville,IN,47715,37.9667372,-87.4904064,kroger,4,3,4,3
"908 W Commerce St Brownstown, IN 47220",Brownstown,IN,47220,38.879369,-86.054021,kroger,4,3,4,3
"1661 Bypass Rd Hwy 1958 Winchester, KY 40391",Winchester,KY,40391,37.994292,-84.2178122,kroger,4,3,4,3
"341 E Main St Paris, KY 40361",Paris,KY,40361,38.2193625,-84.2394958,kroger,4,3,4,3
"243 Main St Irvine, KY 40336",Irvine,KY,40336,37.7028651,-83.975916,kroger,4,3,4,3
"338 N Main St McKee, KY 40447",Mckee,KY,40447,37.4304965,-84.0003687,kroger,4,3,4,3
"810 Indian Mound Dr Mount Sterling, KY 40353",Mount Sterling,KY,40353,38.061095,-83.953677,kroger,4,3,4,3
"179 W College Ave Stanton, KY 40380",Stanton,KY,40380,37.8443276,-83.8617452,kroger,4,3,4,3
"111 Riverside Dr. Suite 1 Cynthiana, KY 41031",Cynthiana,KY,41031,38.3778392,-84.3081479,kroger,4,3,4,3
"111 Riverside Dr Suite 1 Cynthiana, KY 41031",Cynthiana,KY,41031,38.3780573,-84.3080453,kroger,4,3,4,3
"300 Trademore Center Morehead, KY 40351",Morehead,KY,40351,38.1920522,-83.4852587,kroger,4,3,4,3
"1585 Main St Frenchburg, KY 40322",Frenchburg,KY,40322,37.9552743,-83.6515921,kroger,4,3,4,3
"381 Market Square Dr Maysville, KY 41056",Maysville,KY,41056,38.6255573,-83.7908826,kroger,4,3,4,3
"227 W Main St #1129 Carlisle, KY 40311",Carlisle,KY,40311,38.3129135,-84.0302799,kroger,4,3,4,3
"695 KY-15 #1 Jackson, KY 41339",Jackson,KY,41339,37.5584683,-83.3941918,kroger,4,3,4,3
"107 E Walnut St West Union, OH 45693",West Union,OH,45693,38.793839,-83.545016,kroger,4,3,4,3
"801 Robbins Ave. Falmouth, KY 41040",Falmouth,KY,41040,38.6688107,-84.3353472,kroger,4,3,4,3
"425 Home Street Georgetown, OH 45121",Georgetown,OH,45121,38.8587353,-83.898553,kroger,4,3,4,3
"721 North Market Street Felicity, OH 45120",Felicity,OH,45120,38.8414688,-84.0953271,kroger,4,3,4,3
"1 Waynoka Dr Sardinia, OH 45171",Sardinia,OH,45171,38.9246351,-83.7843941,kroger,4,3,4,3
"635 Chestnut Dr Walton, KY 41094",Walton,KY,41094,38.856209,-84.616966,kroger,4,3,4,3
"1751 Patrick Dr Burlington, KY 41005",Burlington,KY,41005,39.0180491,-84.6924703,kroger,4,3,4,3
"1747 Patrick Dr Burlington, KY 41005",Burlington,KY,41005,39.01844489,-84.69041754,kroger,4,3,4,3
"3105 North Bend Rd Hebron, KY 41048",Hebron,KY,41048,39.0644282,-84.7069317,kroger,4,3,4,3
"7685 Mall Road Florence, KY 41042",Florence,KY,41042,38.9969875,-84.6562035,kroger,4,3,4,3
"8820 US Highway 42 Florence, KY 41042",Florence,KY,41042,38.96640573,-84.67694581,kroger,4,3,4,3
"8775 US Highway 42 Union, KY 41091",Union,KY,41091,38.9672807,-84.6716831,kroger,4,3,4,3
"8825 US Highway 42 Union, KY 41091",Union,KY,41091,38.965392,-84.674033,kroger,4,3,4,3
"9001 US Highway 42 Union, KY 41091",Union,KY,41091,38.962402,-84.67646,kroger,4,3,4,3
"8193 Mall Rd Florence, KY 41042",Florence,KY,41042,38.98212401,-84.65061708,kroger,4,3,4,3
"6617 Dixie Hwy Florence, KY 41042",Florence,KY,41042,39.0046794,-84.61817964,kroger,4,3,4,3
"9950 Berberich Dr Florence, KY 41042",Florence,KY,41042,38.9579368,-84.6246617,kroger,4,3,4,3
"6778 River Rd. Hebron, KY 41048",Hebron,KY,41048,39.1075719,-84.6991096,kroger,4,3,4,3
"3158 Dixie Hwy Erlanger, KY 41018",Erlanger,KY,41018,39.0216162,-84.593735,kroger,4,3,4,3
"251 E Mount Zion Rd Independence, KY 41051",Independence,KY,41051,38.95667,-84.614324,kroger,4,3,4,3
"3104 Dixie Hwy Erlanger, KY 41018",Erlanger,KY,41018,39.02122608,-84.59028716,kroger,4,3,4,3
"5080 Delhi Pike Cincinnati, OH 45238",Cincinnati,OH,45238,39.0962602,-84.6127791,kroger,4,3,4,3
"606 Buttermilk Pike Crescent Springs, KY 41017",Crescent Springs,KY,41017,39.05201852,-84.57669012,kroger,4,3,4,3
"2150 Dixie Hwy Fort Mitchell, KY 41017",Fort Mitchell,KY,41017,39.048838,-84.55298,kroger,4,3,4,3
"880 W Eads Pkwy Lawrenceburg, IN 47025",Lawrenceburg,IN,47025,39.0848434,-84.8778069,kroger,4,3,4,3
"512 Green Blvd Aurora, IN 47001",Aurora,IN,47001,39.06464,-84.8965,kroger,4,3,4,3
"432 Craig Ave Greendale, IN 47025",Greendale,IN,47025,39.123745,-84.847915,kroger,4,3,4,3
"2310 Ferguson Rd Cincinnati, OH 45238",Cincinnati,OH,45238,39.126708,-84.5973922,kroger,4,3,4,3
"1825 Dixie Hwy Ft Wright, KY 41011",Ft Wright,KY,41011,39.06097674,-84.54002046,kroger,4,3,4,3
"6165 Glenway Ave Cincinnati, OH 45211",Cincinnati,OH,45211,39.1427165,-84.622713,kroger,4,3,4,3
"3609 Warsaw Ave Cincinnati, OH 45205",Cincinnati,OH,45205,39.1093681,-84.5715512,kroger,4,3,4,3
"1700 Declaration Drive Independence, KY 41051",Independence,KY,41051,38.9286769,-84.5483376,kroger,4,3,4,3
"4001 State Route 128 Hamilton Cleves Rd Cleves, OH 45002",Cleves,OH,45002,39.1721421,-84.7608396,kroger,4,3,4,3
"2005 Centennial Blvd Independence, KY 41051",Independence,KY,41051,38.92956286,-84.54436485,kroger,4,3,4,3
"4303 Winston Ave Covington, KY 41015",Covington,KY,41015,39.0415197,-84.5091933,kroger,4,3,4,3
"4299 Winston Ave Covington, KY 41015",Covington,KY,41015,39.04154973,-84.50666793,kroger,4,3,4,3
"5910 Harrison Ave Cincinnati, OH 45248",Cincinnati,OH,45248,39.177059,-84.641219,kroger,4,3,4,3
"1525 Madison Ave Covington, KY 41011",Covington,KY,41011,39.072869,-84.50848,kroger,4,3,4,3
"1220 Madison Ave Covington, KY 41011",Covington,KY,41011,39.07755474,-84.50835598,kroger,4,3,4,3
"100 E Court St Cincinnati, OH 45202",Cincinnati,OH,45202,39.10682,-84.51253,kroger,4,3,4,3
"1601 Monmouth St Newport, KY 41071",Newport,KY,41071,39.08387553,-84.4828155,kroger,4,3,4,3
"3491 North Bend Rd Cincinnati, OH 45239",Cincinnati,OH,45239,39.1896065,-84.5987839,kroger,4,3,4,3
"1 West Corry Street Cincinnati, OH 45219",Cincinnati,OH,45219,39.128667,-84.509336,kroger,4,3,4,3
"130 Pavilion Pkwy Newport, KY 41071",Newport,KY,41071,39.0902737,-84.4783988,kroger,4,3,4,3
"53 Donnermeyer Dr Bellevue, KY 41073",Bellevue,KY,41073,39.0992898,-84.48185,kroger,4,3,4,3
"70 Martha Layne Collins Blvd Cold Spring, KY 41076",Cold Spring,KY,41076,39.0257363,-84.4535666,kroger,4,3,4,3
"2840 Alexandria Pike Highland Heights, KY 41076",Highland Heights,KY,41076,39.03146647,-84.4527063,kroger,4,3,4,3
"4777 Kenard Ave Cincinnati, OH 45232",Cincinnati,OH,45232,39.1644117,-84.5148034,kroger,4,3,4,3
"375 Crossroads Blvd Cold Spring, KY 41076",Cold Spring,KY,41076,39.00629,-84.420587,kroger,4,3,4,3
"10477 Harrison Ave Harrison, OH 45030",Harrison,OH,45030,39.249293,-84.791679,kroger,4,3,4,3
"1 Viewpoint Dr Alexandria, KY 41001",Alexandria,KY,41001,38.98494062,-84.40271042,kroger,4,3,4,3
"7132 Hamilton Ave Cincinnati, OH 45231",Cincinnati,OH,45231,39.2245422,-84.5478434,kroger,4,3,4,3
"4500 Montgomery Rd Cincinnati, OH 45212",Cincinnati,OH,45212,39.1587311,-84.4554364,kroger,4,3,4,3
"3636 Springdale Road Cincinnati, OH 45251",Cincinnati,OH,45251,39.2489324,-84.5995229,kroger,4,3,4,3
"8421 Winton Rd Cincinnati, OH 45231",Cincinnati,OH,45231,39.2203019,-84.5192304,kroger,4,3,4,3
"3760 Paxton Ave Cincinnati, OH 45209",Cincinnati,OH,45209,39.144662,-84.429584,kroger,4,3,4,3
"2120 Beechmont Ave Cincinnati, OH 45230",Cincinnati,OH,45230,39.093585,-84.3864713,kroger,4,3,4,3
"4613 Marburg Ave. Cincinnati, OH 45209",Cincinnati,OH,45209,39.1601221,-84.4270873,kroger,4,3,4,3
"7580 Beechmont Ave Cincinnati, OH 45255",Cincinnati,OH,45255,39.074332,-84.347973,kroger,4,3,4,3
"8241 Vine St Cincinnati, OH 45216",Cincinnati,OH,45216,39.2102762,-84.4753884,kroger,4,3,4,3
"7385 Wooster Pike Cincinnati, OH 45227",Cincinnati,OH,45227,39.1416149,-84.3616532,kroger,4,3,4,3
"450 Ohio Pike Cincinnati, OH 45255",Cincinnati,OH,45255,39.0741722,-84.3114587,kroger,4,3,4,3
"412 Walnut St New Richmond, OH 45157",New Richmond,OH,45157,38.9519594,-84.2798639,kroger,4,3,4,3
"262 W. Main Street Amelia, OH 45102",Amelia,OH,45102,39.0359892,-84.2330384,kroger,4,3,4,3
"210 Sterling Run Blvd Mount Orab, OH 45154",Mount Orab,OH,45154,39.0395591,-83.9241104,kroger,4,3,4,3
"7 Steam Furnace Rd Peebles, OH 45660",Peebles,OH,45660,38.9439185,-83.4100811,kroger,4,3,4,3
"115 W. Main St. Owensville, OH 45160",Owensville,OH,45160,39.1223553,-84.1364492,kroger,4,3,4,3
"4530 Eastgate Blvd #500 Cincinnati, OH 45245",Cincinnati,OH,45245,39.1030213,-84.2712059,kroger,4,3,4,3
"4630 Aicholtz Road Cincinnati, OH 45244",Cincinnati,OH,45244,39.1048196,-84.2976412,kroger,4,3,4,3
"4630 Aicholtz Rd Cincinnati, OH 45244",Cincinnati,OH,45244,39.104865,-84.297621,kroger,4,3,4,3
"824 Main St Milford, OH 45150",Milford,OH,45150,39.1761178,-84.2805863,kroger,4,3,4,3
"1093 State Route 28 Milford, OH 45150",Milford,OH,45150,39.193092,-84.23506,kroger,4,3,4,3
"6725 Dick Flynn Blvd Goshen, OH 45122",Goshen,OH,45122,39.2315792,-84.1646591,kroger,4,3,4,3
"575 Harry Sauner Rd Hillsboro, OH 45133",Hillsboro,OH,45133,39.2247213,-83.6192748,kroger,4,3,4,3
"1001 Cherry St Blanchester, OH 45107",Blanchester,OH,45107,39.301354,-83.9609353,kroger,4,3,4,3
"6388 Branch Hill Guinea Pike Loveland, OH 45140",Loveland,OH,45140,39.229795,-84.253905,kroger,4,3,4,3
"6950 Miami Ave Cincinnati, OH 45243",Cincinnati,OH,45243,39.188105,-84.361497,kroger,4,3,4,3
"4100 Hunt Rd Blue Ash, OH 45236",Blue Ash,OH,45236,39.2272828,-84.3978512,kroger,4,3,4,3
"10595 Springfield Pike Cincinnati, OH 45215",Cincinnati,OH,45215,39.2600763,-84.4712549,kroger,4,3,4,3
"9939 Montgomery Rd Montgomery, OH 45242",Montgomery,OH,45242,39.2381848,-84.3506946,kroger,4,3,4,3
"1212 W Kemper Rd Cincinnati, OH 45240",Cincinnati,OH,45240,39.2900055,-84.5250073,kroger,4,3,4,3
"807 Warpath Rd Milan, IN 47031",Milan,IN,47031,39.131322,-85.128616,kroger,4,3,4,3
"711 S Buckeye Hwy 421 Osgood, IN 47037",Osgood,IN,47037,39.12365,-85.28708,kroger,4,3,4,3
"220 Waverly Plaza Waverly, OH 45690",Waverly,OH,45690,39.1330466,-82.9766677,kroger,4,3,4,3
"3275 Irvin Cobb Dr Paducah, KY 42003",Paducah,KY,42003,37.0513042,-88.5701865,kroger,4,3,4,3
"501 Lone Oak Rd Paducah, KY 42003",Paducah,KY,42003,37.0630583,-88.6408623,kroger,4,3,4,3
"3141 Park Ave Paducah, KY 42001",Paducah,KY,42001,37.0857824,-88.6464939,kroger,4,3,4,3
"2103 William Street Cape Girardeau, MO 63701",Cape Girardeau,MO,63701,37.3025613,-89.5476897,kroger,4,3,4,3
"45 Plaza Dr Anna, IL 62906",Anna,IL,62906,37.463816,-89.2305096,kroger,4,3,4,3
"545 Island Ford Rd Madisonville, KY 42431",Madisonville,KY,42431,37.3495886,-87.4898361,kroger,4,3,4,3
"U.S. Hwy. 45 N. Harrisburg, IL 62946",Harrisburg,IL,62946,37.7456519,-88.5256494,kroger,4,3,4,3
"2480 Us Hwy 41 North Ste. B Henderson, KY 42420",Henderson,KY,42420,37.8713286,-87.5678687,kroger,4,3,4,3
"2040 E Morgan Ave Evansville, IN 47711",Evansville,IN,47711,37.9926033,-87.52714,kroger,4,3,4,3
"4624 North 1St Ave. Evansville, IN 47710",Evansville,IN,47710,38.0211098,-87.5754218,kroger,4,3,4,3
"1503 W Broadway St Princeton, IN 47670",Princeton,IN,47670,38.3536372,-87.5848383,kroger,4,3,4,3
"801 N Houk Rd Delaware, OH 43015",Delaware,OH,43015,40.312909,-83.110079,kroger,4,3,4,3
"555 W Marion Rd Mount Gilead, OH 43338",Mount Gilead,OH,43338,40.5472654,-82.8465263,kroger,4,3,4,3
"1840 Columbus Pike Delaware, OH 43015",Delaware,OH,43015,40.2645817,-83.0708511,kroger,4,3,4,3
"131 State Route 3 Sunbury, OH 43074",Sunbury,OH,43074,40.2462815,-82.8686806,kroger,4,3,4,3
"1428 Marion Waldo Rd Marion, OH 43302",Marion,OH,43302,40.5631302,-83.1173348,kroger,4,3,4,3
"1608 Marion Mount Gilead Rd Marion, OH 43302",Marion,OH,43302,40.5832812,-83.08624,kroger,4,3,4,3
"6417 Columbus Pike Lewis Center, OH 43035",Lewis Center,OH,43035,40.2034124,-83.0264977,kroger,4,3,4,3
"7345 S.R. 3 Westerville, OH 43082",Westerville,OH,43082,40.1496446,-82.9208478,kroger,4,3,4,3
"7447 State Route 3 Westerville, OH 43082",Westerville,OH,43082,40.148061,-82.923147,kroger,4,3,4,3
"1177 Polaris Pkwy Columbus, OH 43240",Columbus,OH,43240,40.1400189,-82.9902018,kroger,4,3,4,3
"3975 Powell Rd Powell, OH 43065",Powell,OH,43065,40.1569087,-83.0954752,kroger,4,3,4,3
"1425 Worthington Centre Dr Worthington, OH 43085",Worthington,OH,43085,40.1227589,-82.9794468,kroger,4,3,4,3
"55 W Schrock Rd Westerville, OH 43081",Westerville,OH,43081,40.1082451,-82.9275624,kroger,4,3,4,3
